Station Name,ID,Lat.,Lon.,GLOSS ID,Country,Date,Coastline,Station
AARHUS,76,56.147,10.224,,DNK,11/09/2013,130,81
ABASHIRI,1104,44.019,144.286,327,JPN,08/02/2017,641,3
ABERDEEN I,361,57.144,-2.077,,GBR,28/06/2017,170,11
ABERDEEN II,21,57.150,-2.083,,GBR,01/01/1980,170,12
ABIDJAN,1313,5.250,-4.000,257,CIV,01/01/1980,405,1
ABURATSU,814,31.577,131.409,82,JPN,08/02/2017,645,21
ABURATSUBO,130,35.160,139.615,,JPN,08/02/2017,642,91
ACAJUTLA,1011,13.567,-89.833,182,SLV,03/09/2015,833,11
ACAJUTLA 2,1302,13.583,-89.833,182,SLV,29/09/2015,833,12
ACAPULCO,686,16.833,-99.917,267,MEX,24/06/2015,830,81
ADAK SWEEPER COVE,487,51.863,-176.632,302,USA,02/02/2017,820,11
ADEN,44,12.788,44.974,3,YEM,01/02/2016,485,1
AGUADILLA,2121,18.457,-67.163,,PRI,18/02/2013,938,31
AION,730,69.933,167.983,,RUS,13/07/2010,30,560
AJACCIO,1929,41.923,8.763,,FRA,22/03/2017,232,1
AKKO,2218,32.919,35.070,,ISR,03/05/2016,320,9
AKUNE,1265,32.018,130.191,,JPN,08/02/2017,645,45
AKYAB,421,20.133,92.900,37,MMR,01/01/1980,530,1
ALAMEDA (NAVAL AIR STATION),437,37.772,-122.298,,USA,02/02/2017,823,32
ALAMITOS BAY ENTRANCE,717,33.750,-118.117,,USA,01/01/1980,823,56
ALBANY,957,-35.034,117.893,,AUS,30/06/2016,680,451
ALCUDIA,2063,39.835,3.139,,ESP,20/09/2017,225,14
ALERT,1110,82.490,-62.320,333,CAN,03/08/2010,970,162
ALERT BAY,554,50.583,-126.950,,CAN,01/01/1980,822,21
ALESUND,509,62.469,6.152,,NOR,24/01/2018,40,191
ALEXANDRIA,503,31.217,29.917,349,EGY,18/09/2013,330,71
ALEXANDROUPOLIS,1238,40.844,25.878,,GRC,01/11/2017,290,65
ALGECIRAS,490,36.117,-5.433,,ESP,20/11/2006,220,11
ALGECIRAS 2,2055,36.177,-5.398,,ESP,20/09/2017,220,015
ALGECIRAS B,2117,36.121,-5.437,,ESP,07/02/2017,220,012
ALICANTE I,208,38.338,-0.478,,ESP,11/11/1998,220,051
ALICANTE II,960,38.339,-0.481,,ESP,11/11/1998,220,052
"ALITAK, LAZY BAY",2301,56.898,-154.247,,USA,02/02/2017,821,010
ALMERIA,1455,36.832,-2.485,,ESP,11/11/1998,220,041
ALMERIA 2,2056,36.830,-2.478,,ESP,20/09/2017,220,044
ALMIRANTE BROWN,858,-64.900,-62.867,,ATA,01/01/1980,999,024
ALOTAU,1607,-10.317,150.450,63,PNG,03/07/2013,670,006
ALVARADO,768,18.767,-95.767,,MEX,23/01/1992,920,031
AMASRA,1919,41.433,32.233,,TUR,24/06/2010,310,026
AMBARCHIK,604,69.617,162.300,,RUS,08/12/2014,030,535
AMDERMA,599,69.750,61.700,,RUS,08/12/2014,030,310
AMERICAN RIVER,631,-35.800,137.767,,AUS,01/01/1980,680,361
AMHERST,746,16.083,97.567,,MMR,01/01/1980,530,031
AMRUM (WITTDUEN),1036,54.617,8.383,,DEU,29/06/2017,140,002
ANABAR,1780,73.217,113.500,,RUS,08/12/2014,030,425
ANCHORAGE,1067,61.238,-149.890,,USA,02/02/2017,821,012
ANCONA,101,43.583,13.483,,ITA,01/01/1980,270,030
ANCONA II,2098,43.625,13.507,,ITA,18/10/2016,270,032
ANCUD,2264,-41.867,-73.832,,CHL,09/11/2017,850,053
ANDENES,425,69.326,16.135,322,NOR,07/11/2017,040,041
ANDREIA (ANDREIA OSTROV),646,76.800,110.750,,RUS,08/01/2003,030,410
ANGRA DO HEROISMO,380,38.650,-27.233,,PRT,04/11/1998,360,011
ANHEUNG,1699,36.674,126.132,,KOR,25/04/2017,620,014
ANNAPOLIS (NAVAL ACADEMY),311,38.983,-76.480,,USA,02/02/2017,960,080
ANTALYA II,1681,36.833,30.617,,TUR,09/07/2013,310,052
ANTIFER,1383,49.650,0.150,,FRA,01/01/1980,190,046
ANTIPAIUTA,1128,69.083,76.850,,RUS,06/01/2003,030,335
ANTOFAGASTA,511,-23.650,-70.417,174,CHL,19/11/1992,850,011
ANTOFAGASTA 2,510,-23.653,-70.404,174,CHL,07/06/2017,850,012
APALACHICOLA,1193,29.727,-84.982,,USA,02/02/2017,940,043
APIA B,1840,-13.827,-171.761,,WSM,25/01/2017,746,002
"APRA HARBOUR, GUAM",540,13.438,144.653,149,GUM,02/02/2017,701,001
ARCACHON-EYRAC,1918,44.665,-1.164,,FRA,22/03/2017,190,140
"ARENA COVE, CALIFORNIA",2125,38.913,-123.707,,USA,02/02/2017,823,026
ARGENTIA,1321,47.300,-53.983,,CAN,29/06/2017,970,116
ARGENTINE ISLANDS,913,-65.246,-64.257,188,ATA,21/05/2015,999,003
ARICA,618,-18.467,-70.333,,CHL,19/11/1992,850,001
ARINAGA,2049,27.847,-15.401,,ESP,24/01/2013,370,048
ARRECIFE,593,28.972,-13.530,,ESP,07/02/2017,370,001
ARRECIFE 2,2066,28.972,-13.530,,ESP,20/09/2017,370,010
ARRECIFE-D,1710,28.950,-13.567,,ESP,15/05/2002,370,004
ARUN PLATFORM,2280,50.770,-0.492,,GBR,08/03/2016,170,132
ASAMUSHI,721,40.898,140.859,,JPN,08/02/2017,647,121
ASHDOD II,2219,31.831,34.641,,ISR,03/05/2016,320,033
ASHKLON,2220,31.682,34.557,,ISR,03/05/2016,320,035
ASTORIA (TONGUE POINT),265,46.207,-123.768,,USA,02/02/2017,823,013
"ATKA, NAZAN BAY",2303,52.232,-174.173,,USA,02/02/2017,820,012
ATLANTIC CITY,180,39.355,-74.418,220,USA,02/02/2017,960,091
AUCKLAND II,150,-36.843,174.769,127,NZL,09/06/2003,690,002
AUCKLAND-WAITEMATA HARBOUR,217,-36.843,174.769,127,NZL,27/08/1999,690,001
AVEIRO,1402,40.650,-8.750,,PRT,06/11/1998,210,013
AVONMOUTH,257,51.508,-2.713,,GBR,27/01/2016,170,171
AWA SIMA,1093,38.468,139.255,,JPN,08/02/2017,647,090
AYUKAWA,131,38.297,141.505,,JPN,08/02/2017,642,031
BACKEVIK,97,58.367,11.250,,SWE,01/01/1980,050,021
BAHIA DE LOS ANGELES,1357,28.967,-113.550,,MEX,03/12/1997,830,025
BAHIA ESPERANZA,988,-63.300,-56.917,185,ATA,11/05/1999,999,001
BAHIA SAN QUINTIN,1457,30.483,-115.983,,MEX,29/12/1994,830,005
BAIE COMEAU,1218,49.233,-68.133,,CAN,25/10/1993,970,098
BAKAR,353,45.300,14.533,,HRV,01/10/2015,280,011
"BALANACAN, MARINDUQUE",2157,13.533,121.867,,PHL,13/12/2017,660,008
BALBOA,163,8.967,-79.567,168,PAN,26/04/2017,840,011
"BALINTANG, QUEZON, PALAWAN",2155,9.350,118.133,,PHL,12/12/2013,660,106
BALLINA,319,-28.867,153.583,,AUS,01/01/1980,680,081
BALTIMORE,148,39.267,-76.578,,USA,02/02/2017,960,081
BALTRA-B,1645,-0.433,-90.283,169,ECU,21/10/2015,845,034
BAMFIELD,1242,48.850,-125.133,,CAN,29/06/2017,822,108
BANGOR,1856,54.665,-5.669,,GBR,28/06/2017,170,281
BAR,1075,42.083,19.083,,MNE,03/02/1993,281,011
"BAR HARBOR, FRENCHMAN BAY, ME",525,44.392,-68.205,,USA,02/02/2017,960,191
BARAHONA,745,18.200,-71.083,,DOM,01/01/1980,936,011
BARCELONA,1811,41.342,2.166,,ESP,20/09/2017,220,061
BARENTSBURG,541,78.067,14.250,231,SJM,09/01/2018,025,001
BARENTSBURG II (SPITSBERGEN),547,78.067,14.250,231,SJM,17/01/2003,025,002
BARI,2075,41.140,16.866,,ITA,18/10/2016,270,017
BARMOUTH,1771,52.719,-4.045,,GBR,31/05/2016,170,187
BARSEBACK,2109,55.756,12.903,,SWE,01/03/2017,050,064
BATISCAN,144,46.500,-72.250,,CAN,29/06/2017,970,082
BATUMI,51,41.633,41.700,,GEO,06/07/2016,305,031
BAY WAVELAND YACHT CLUB,1715,30.325,-89.325,,USA,01/10/1996,940,036
BAY WAVELAND YACHT CLUB II,2215,30.327,-89.325,,USA,02/02/2017,940,038
BEACHPORT,304,-37.500,140.000,,AUS,31/05/1989,680,251
BEAUFORT,1537,32.433,-80.667,,USA,04/11/1988,960,036
"BEAUFORT, NORTH CAROLINA",2295,34.720,-76.670,,USA,02/02/2017,960,061
BECANCOUR,1798,46.400,-72.383,,CAN,29/06/2017,970,077
BEIHAI,1408,21.483,109.083,,CHN,17/01/2012,610,001
BELEM,580,-1.450,-48.500,,BRA,01/01/1980,874,161
BELFAST,861,54.600,-5.917,,GBR,01/01/1980,170,271
BELFAST 2,219,54.600,-5.917,,GBR,31/05/1989,170,272
BELLA BELLA,984,52.167,-128.133,,CAN,29/06/2017,822,016
BELLA COOLA,1084,52.367,-126.783,,CAN,01/01/1980,822,013
BELLEDUNE,2069,47.900,-65.850,,CAN,29/06/2017,970,042
BELYI NOS,859,69.600,60.217,,RUS,17/01/2003,030,007
BENOA B,2200,-8.747,115.212,49,IDN,28/10/2015,560,136
BERGEN,58,60.398,5.320,,NOR,15/11/2017,040,221
"BERGEN POINT, STATEN IS.",1637,40.637,-74.142,,USA,02/02/2017,960,132
BERLEVAG,442,70.850,29.100,,NOR,01/01/1980,040,011
BETIO,1804,1.365,172.933,113,KIR,25/01/2017,730,009
BHAUNAGAR I,420,21.800,72.300,,IND,01/01/1980,500,030
BHAUNAGAR II,804,21.750,72.233,,IND,01/01/1980,500,031
BILBAO,1806,43.352,-3.045,,ESP,20/09/2017,200,006
BILLINGA,708,69.883,175.767,,RUS,16/01/2003,030,578
BINTULU,1833,3.262,113.064,,MYS,21/11/2017,663,011
BIRKENHEAD (ALFRED DOCK),765,53.400,-3.017,,GBR,25/06/1992,170,201
BITUNG II,1709,1.433,125.200,69,IDN,28/10/2015,580,012
BJORN,90,60.633,17.967,,SWE,01/01/1980,050,161
BLUFF (SOUTHLAND HARBOUR),213,-46.598,168.345,129,NZL,13/06/2017,690,041
BODO,562,67.288,14.391,,NOR,24/01/2018,040,101
BODRUM II,1680,37.033,27.417,,TUR,09/07/2013,310,046
BOLVANSKII NOS (FEDOROVA),651,70.450,59.083,,RUS,06/01/2003,030,305
BOMBAY (PRINCES DOCK),212,18.950,72.833,,IND,01/01/1980,500,051
BONANZA,1809,36.802,-6.338,,ESP,20/09/2017,220,008
BONAVISTA,2135,49.083,-53.200,,CAN,29/06/2017,970,114
BOOBY ISLAND,1268,-10.603,141.910,61,AUS,21/09/2017,680,025
BORKUM (FISCHERBALJE),1037,53.558,6.748,,DEU,29/06/2017,140,016
BORYEONG,1675,36.406,126.486,,KOR,25/04/2017,620,017
BOSTON,235,42.353,-71.053,,USA,02/02/2017,960,171
BOUCAU,1801,43.527,-1.515,,FRA,22/03/2017,190,139
BOULOGNE,471,50.728,1.577,,FRA,22/03/2017,190,021
BOURGAS,317,42.483,27.483,,BGR,27/08/1997,295,021
BOURNEMOUTH,1878,50.714,-1.875,,GBR,02/07/2014,170,146
BOUTILIER POINT,1259,44.667,-63.967,,CAN,07/06/1989,970,009
BOWEN II,2074,-20.017,148.250,,AUS,30/06/2016,680,050
BREST,1,48.383,-4.495,242,FRA,22/03/2017,190,091
BRIDGEPORT,1068,41.173,-73.182,,USA,02/02/2017,960,147
BRIGHTON,677,-35.033,138.517,,AUS,01/01/1980,680,291
BRISBANE (WEST INNER BAR),822,-27.367,153.167,58,AUS,21/09/2017,680,078
BRONNOYSUND,803,65.483,12.217,,NOR,01/01/1980,040,131
BROOME,1159,-18.001,122.219,40,AUS,25/01/2017,680,497
BRUNSWICK HEADS,2310,-28.537,153.552,,AUS,22/11/2016,680,082
BUCKIE,1281,57.667,-2.967,,GBR,07/04/1992,170,009
"BUCKSPORT, WACCAMAW R.",1720,33.647,-79.095,,USA,16/07/1993,960,048
BUENAVENTURA,456,3.900,-77.100,170,COL,04/11/2015,842,011
BUENOS AIRES,157,-34.600,-58.367,,ARG,14/05/1991,860,151
BUGRINO,2025,68.800,49.333,,RUS,20/07/2010,030,010
BUKOM,2032,1.226,103.778,,SGP,26/04/2017,555,010
BUNBURY,834,-33.323,115.660,,AUS,30/06/2016,680,461
"BUNDABERG, BURNETT HEADS",1154,-24.767,152.383,59,AUS,21/09/2017,680,073
BUORHAIA (BUORHAIA MYS),735,71.950,132.767,,RUS,08/01/2003,030,464
BURNIE,683,-41.050,145.915,,AUS,25/01/2017,680,193
BUSAN,955,35.096,129.036,84,KOR,25/04/2017,620,046
BUZZARDS BAY,776,41.742,-70.617,,USA,01/01/1980,960,163
BYKOV MYS (BYKOV MYS),1399,72.000,129.117,,RUS,08/01/2003,030,449
CABO CRUZ,1910,19.833,-77.733,,CUB,09/01/2018,930,091
CABO DE SAN ANTONIO,1297,21.900,-84.900,214,CUB,09/01/2018,930,071
CABO SAN LUCAS,1355,22.883,-109.900,161,MEX,31/07/2014,830,020
CADIZ II,209,36.528,-6.311,,ESP,26/06/2013,220,002
CADIZ III,985,36.540,-6.286,,ESP,07/02/2017,220,003
CAGLIARI,104,39.200,9.167,,ITA,01/01/1980,240,011
CAGLIARI II,2089,39.210,9.114,,ITA,07/05/2015,240,012
CAIRNS,953,-16.917,145.783,,AUS,30/06/2016,680,041
CALAIS,455,50.969,1.868,,FRA,22/03/2017,190,011
CALDERA,619,-27.067,-70.833,,CHL,19/11/1992,850,021
CALETA PERCY,994,-52.900,-70.267,,CHL,02/12/2015,850,071
CALLAO 2,1274,-12.050,-77.150,173,PER,29/10/2015,848,032
CAMBRIDGE,481,38.575,-76.072,,USA,01/01/1980,960,074
CAMBRIDGE BAY,1132,69.117,-105.067,,CAN,07/06/1989,970,191
CAMBRIDGE II,1295,38.573,-76.068,,USA,02/02/2017,960,073
CAMP COVE,549,-33.833,151.283,,AUS,20/02/1990,680,151
CAMPBELL RIVER,1323,50.017,-125.233,,CAN,29/06/2017,822,027
CANANEIA,726,-25.017,-47.933,194,BRA,18/07/2007,874,051
CANAVIEIRAS,699,-15.667,-38.967,,BRA,01/01/1980,874,106
CAP AUX MEULES,2031,47.379,-61.857,,CAN,29/06/2017,970,030
CAPE FERGUSON,1492,-19.277,147.058,,AUS,25/01/2017,680,054
"CAPE HATTERAS, NORTH CAROLINA",2294,35.223,-75.635,,USA,26/04/2016,960,059
CAPE LAMBERT,1328,-20.588,117.186,,AUS,30/06/2016,680,491
CAPE MAY,1153,38.968,-74.960,,USA,02/02/2017,960,090
CAPE PARRY,1282,70.150,-124.667,,CAN,19/03/2013,970,201
CAPE ROBERTS ANTARCTICA,1763,-77.034,163.191,,ATA,27/09/2010,999,070
CAPE TOWN (GRANGER BAY),1195,-33.905,18.435,,ZAF,23/02/2017,430,045
CAPO PASSERO,873,36.667,15.300,,ITA,01/01/1980,260,028
CARLOFORTE,2076,39.148,8.309,,ITA,18/10/2016,240,015
CARNARVON,1115,-24.899,113.651,52,AUS,29/06/2016,680,479
CARTAGENA,572,10.400,-75.550,207,COL,20/04/1994,902,021
CARTAGENA,1460,37.597,-0.974,,ESP,07/04/1989,220,046
CASCAIS,52,38.683,-9.417,246,PRT,27/01/2016,210,021
CASEY,1886,-66.267,110.517,278,ATA,14/11/2017,999,055
CASILDA II,2021,21.753,-79.992,,CUB,09/01/2018,930,065
CATANIA,102,37.500,15.133,,ITA,01/01/1980,260,031
CATANIA II,2094,37.498,15.094,,ITA,18/10/2016,260,032
CATICLAN MALAY AKLAN,2172,11.950,121.933,,PHL,13/12/2017,660,004
CAYO LOCO,2289,22.151,-80.455,,CUB,09/01/2018,930,067
CEBU,394,10.300,123.917,,PHL,13/12/2017,660,101
CEDAR KEY I,199,29.133,-83.033,,USA,01/01/1980,940,051
CEDAR KEY II,428,29.135,-83.032,,USA,02/02/2017,940,052
CENDERING,1592,5.265,103.187,293,MYS,21/11/2017,550,017
CEUTA,498,35.892,-5.316,249,ESP,07/02/2017,340,001
CHABAHAR II,2228,25.296,60.603,337,IRN,30/11/2017,489,052
CHAMPERICO,1201,14.283,-91.917,,GTM,01/01/1980,832,006
CHAMPLAIN,1005,46.433,-72.400,,CAN,04/06/1996,970,080
CHARCHANGA,1496,22.217,91.050,36,BGD,17/06/2013,510,008
CHARLESTON I,234,32.782,-79.925,,USA,02/02/2017,960,041
CHARLESTON II,1269,43.345,-124.322,,USA,02/02/2017,823,019
CHARLOTTE AMALIE,1393,18.335,-64.920,,VIR,02/02/2017,939,001
CHARLOTTETOWN,427,46.233,-63.117,,CAN,29/06/2017,970,031
CHATHAM ISLAND,1920,-43.946,-176.561,128,NZL,17/11/2010,690,401
CHENNAI,205,13.100,80.300,34,IND,27/06/2017,500,091
CHERBOURG,467,49.651,-1.636,,FRA,22/03/2017,190,061
CHERRY POINT,1633,48.863,-122.757,,USA,02/02/2017,823,005
CHESAPEAKE BAY BR. TUN.,1635,36.967,-76.113,,USA,02/02/2017,960,070
CHETYREHSTOLBOVOI,650,70.633,162.483,,RUS,16/01/2003,030,550
"CHI MA WAN, LANTAU ISLAND",987,22.233,114.000,,HKG,13/05/1998,611,008
CHICHIJIMA,1391,27.083,142.183,103,JPN,09/02/2017,648,001
CHIMBOTE,771,-9.083,-78.633,,PER,01/01/1980,848,021
CHINHAE,970,35.150,128.650,,KOR,01/01/1980,620,041
CHITTAGONG A,2196,22.247,91.825,36,BGD,15/10/2015,510,026
CHOSHI I,879,35.733,140.867,,JPN,01/01/1980,642,051
CHOSHI-GYOKO,1544,35.744,140.858,,JPN,09/02/2017,642,050
CHRISTIANSTED HARBOUR,2118,17.750,-64.705,,VIR,02/02/2017,939,015
CHRISTMAS ISLAND,801,1.983,-157.467,146,KIR,01/01/1980,770,021
CHRISTMAS ISLAND II,1371,1.983,-157.483,146,KIR,29/10/2015,770,022
CHUJADO,1588,33.962,126.300,,KOR,25/04/2017,620,039
CHURCHILL,447,58.767,-94.183,,CAN,29/06/2017,970,141
"CHUUK, MOEN ISLAND",528,7.447,151.847,116,FSM,10/03/2000,710,001
CILACAP B,2199,-7.752,109.017,291,IDN,28/10/2015,560,123
CIUDAD DEL CARMEN,796,18.633,-91.850,,MEX,24/01/1992,920,011
CIUDAD MADERO,1020,22.250,-97.800,,MEX,09/10/1990,920,066
CIVITAVECCHIA,106,42.050,11.817,,ITA,01/01/1980,250,031
CLEARWATER BEACH,1638,27.978,-82.832,,USA,02/02/2017,940,060
COATZACOALCOS,692,18.150,-94.417,,MEX,23/01/1992,920,021
COCHIN (WILLINGDON IS.),438,9.967,76.267,32,IND,27/06/2017,500,081
COCO SOLO,1530,9.367,-79.883,208,PAN,21/08/1997,904,006
COCOS ISLAND (HOME IS.),983,-12.117,96.894,46,CCK,25/01/2017,680,521
COFF'S HARBOUR,799,-30.317,153.083,,AUS,11/03/1987,680,111
COFFS HARBOUR III,2311,-30.303,153.146,,AUS,22/11/2016,680,115
COLONIA,433,-34.483,-57.850,,URY,23/05/1996,870,001
COMODORO RIVADAVIA,181,-45.867,-67.483,,ARG,01/01/1980,860,021
COMOX,630,49.667,-124.917,,CAN,01/01/1980,822,031
CONCARNEAU,1301,47.874,-3.907,,FRA,22/03/2017,190,096
CONSTANTZA,379,44.167,28.667,,ROU,01/07/1998,297,021
CORDOVA,566,60.558,-145.752,,USA,02/02/2017,821,020
CORFU ( KERKYRA ),1933,39.628,19.905,,GRC,01/11/2017,290,103
"CORPUS CHRISTI, GULF MEXICO, TX",1903,27.583,-97.217,,USA,02/02/2017,940,015
CORRAL,1057,-39.867,-73.433,,CHL,01/01/1980,850,047
CORRAL II,2262,-39.878,-73.423,,CHL,09/11/2017,850,048
COX'S BAZAAR,1476,21.450,91.833,,BGD,17/06/2013,510,041
CRESCENT CITY,378,41.745,-124.182,,USA,02/02/2017,823,021
CRISTOBAL,169,9.350,-79.917,208,PAN,16/01/2012,904,011
CROMER,1632,52.934,1.302,,GBR,28/06/2017,170,066
CULEBRA,2120,18.302,-65.303,,PRI,12/02/2014,938,001
CURRIMAO ILOCOS NORTE,2173,17.983,120.483,,PHL,13/12/2017,660,007
CUTLER,1081,44.650,-67.217,,USA,01/01/1980,960,197
CUTLER II,1524,44.642,-67.297,,USA,23/06/2011,960,196
CUXHAVEN 2,7,53.867,8.717,284,DEU,29/06/2017,140,012
DAKAR,476,14.633,-17.450,253,SEN,01/01/1980,390,001
DAKAR 2,1816,14.683,-17.417,253,SEN,03/11/2015,390,002
DALHOUSIE,1358,48.067,-66.383,,CAN,03/06/1996,970,046
DALIAN,723,38.867,121.683,79,CHN,21/02/2017,610,044
DANANG,1475,16.100,108.217,,VNM,17/11/2015,605,051
DARWIN,935,-12.472,130.846,62,AUS,25/01/2017,680,011
DAUGAVGRIVA,37,57.050,24.033,,LVA,01/01/1980,083,081
DAUPHIN ISLAND,1156,30.250,-88.075,,USA,02/02/2017,940,037
"DAVAO, DAVAO GULF",537,7.083,125.633,71,PHL,13/12/2017,660,121
DAYTONA BEACH,270,29.233,-81.000,,USA,01/01/1980,960,006
DAYTONA BEACH SHORES,1182,29.147,-80.963,,USA,05/10/1987,960,007
DEAL,2277,51.224,1.409,,GBR,08/03/2016,170,108
DELFZIJL,24,53.326,6.933,,NLD,17/07/2017,150,001
DEN HELDER,23,52.964,4.745,,NLD,17/07/2017,150,031
DEPOE BAY,1541,44.810,-124.057,,USA,27/11/1987,823,015
DESCHAILLONS,201,46.567,-72.100,,CAN,29/06/2017,970,074
DEVONPORT,1118,-41.185,146.362,,AUS,30/06/2016,680,195
DEVONPORT,982,50.368,-4.185,,GBR,28/06/2017,170,157
DIAMOND HARBOUR,543,22.200,88.167,,IND,27/06/2017,500,131
DIEGO GARCIA D,2190,-7.290,72.393,26,IOT,23/06/2014,453,005
DIEGO GARCIA-C,1740,-7.283,72.400,26,IOT,17/10/2002,453,003
DIEGO RAMIREZ,1785,-56.500,-68.717,,CHL,25/02/2004,850,091
DIEPPE,474,49.929,1.084,,FRA,22/03/2017,190,031
DIGBY,1230,44.633,-65.750,,CAN,01/01/1980,970,005
DIKSON,611,73.500,80.400,312,RUS,13/08/2013,030,345
DONGFANG,1407,19.100,108.617,,CHN,17/01/2012,610,008
DOUGLAS,435,54.150,-4.467,,IMN,07/04/1992,170,231
DOVER,255,51.114,1.323,,GBR,28/06/2017,170,111
DRAGHALLAN,122,62.367,17.533,,SWE,01/01/1980,050,181
DUBLAT (SAUGOR IS.),49,21.633,88.133,,IND,01/01/1980,500,121
DUBLIN,432,53.350,-6.217,,IRL,15/03/2017,175,071
DUBROVNIK,760,42.658,18.063,,HRV,17/05/2016,280,081
DUCK PIER OUTSIDE,1636,36.183,-75.747,219,USA,02/02/2017,960,063
DUNAI (DUNAI OSTROV),640,73.933,124.500,,RUS,13/08/2013,030,440
DUNBAR,190,56.006,-2.517,,GBR,01/01/1980,170,041
DUNEDIN,252,-45.879,170.513,,NZL,01/01/1980,690,031
DUNEDIN II,136,-45.879,170.513,,NZL,13/06/2017,690,032
DUNKERQUE,468,51.048,2.367,,FRA,22/03/2017,190,001
DURBAN,284,-29.874,31.051,13,ZAF,23/02/2017,430,091
DUTCH HARBOR,390,53.900,-166.533,102,USA,01/01/1980,820,020
DZAOUDZI,1642,-12.782,45.258,96,MYT,30/08/2016,438,001
EAST LONDON,1192,-33.027,27.932,,ZAF,23/02/2017,430,090
EASTER ISLAND-D,1462,-27.150,-109.450,137,CHL,11/09/1990,810,002
EASTER ISLAND-E,1272,-27.155,-109.473,137,CHL,07/06/2017,810,003
EASTPORT,332,44.903,-66.982,,USA,02/02/2017,960,201
EDEN,833,-37.074,149.908,,AUS,22/11/2016,680,171
EDITHBURG,516,-35.083,137.750,,AUS,01/01/1980,680,341
EILAT NORTH,2148,29.545,34.952,,ISR,09/04/2014,480,015
EILAT SOUTH,2149,29.502,34.918,,ISR,03/05/2016,480,021
"ELFIN COVE, PORT ALTHORP",2300,58.195,-136.347,,USA,02/02/2017,821,022
ENEWETOK,665,11.367,162.350,,MHL,01/01/1980,720,001
ENGLISH BAY (ASCENSION ISLAND),1831,-7.893,-14.386,263,SHN,02/10/2014,402,001
ENSENADA,795,31.850,-116.633,,MEX,12/01/2012,830,001
ERDEK,1598,40.383,27.850,,TUR,09/07/2013,310,038
ERDEMLI,2009,36.567,34.250,,TUR,28/06/2010,310,071
ESASHI,1605,41.867,140.133,,JPN,24/08/1998,641,035
ESBJERG,80,55.461,8.441,,DNK,11/09/2013,130,121
ESPERANCE,1114,-33.871,121.895,54,AUS,25/01/2017,680,446
"ESPERANZA, VIEQUES",2209,18.093,-65.472,,PRI,07/02/2017,938,004
EUGENE ISLAND,440,29.372,-91.385,,USA,26/10/1990,940,011
EVANS HEAD,1229,-29.117,153.433,,AUS,01/01/1980,680,093
EVENSKJAER,531,68.583,16.550,,NOR,01/01/1980,040,071
EXMOUTH,1762,-21.955,114.141,,AUS,21/09/2017,680,482
FAMAGUSTA,436,35.117,33.950,,CYP,09/11/1989,315,001
FANNING-B,1361,3.900,-159.383,,KIR,18/05/1994,770,012
FEDOROVA (CHELUSKIN MYS),601,77.717,104.300,,RUS,13/08/2013,030,392
FELIXSTOWE,214,51.958,1.347,,GBR,14/05/2012,170,071
FERNANDINA BEACH,112,30.672,-81.465,,USA,02/02/2017,960,021
FERROL 2,2053,43.476,-8.249,,ESP,20/09/2017,200,035
FISHGUARD,939,52.013,-4.984,,GBR,18/03/1991,170,183
FISHGUARD II,1731,52.013,-4.984,,GBR,28/06/2017,170,184
FOGLO / DEGERBY,249,60.032,20.385,,ALA,20/12/2017,060,281
FORCADOS,389,5.350,5.350,,NGA,05/10/1992,420,011
FORMENTERA,2060,38.735,1.419,,ESP,20/09/2017,225,022
FORSMARK,2103,60.409,18.211,,SWE,01/03/2017,050,155
FORT MYERS,1106,26.647,-81.870,,USA,02/02/2017,940,065
FORT PHRACHULA CHOMKLAO (POM PHRACHUN),444,13.550,100.583,,THA,17/07/2017,600,041
"FORT POINT, NEW HAMPSHIRE",2321,43.072,-70.710,,USA,15/02/2017,960,179
"FORT POINT, NEWCASTLE ISLAND",2291,43.072,-70.712,,USA,02/02/2017,960,178
FORT PULASKI,395,32.033,-80.902,289,USA,02/02/2017,960,031
FORT-DE-FRANCE II,1942,14.602,-61.063,338,MTQ,22/03/2017,912,021
FORTALEZA,559,-3.717,-38.483,336,BRA,01/01/1980,874,151
FRANKLIN HARBOR,402,-33.683,136.933,,AUS,01/01/1980,680,421
FREDERICIA,81,55.561,9.754,,DNK,11/09/2013,130,071
FREDERIKSHAVN,91,57.436,10.549,,DNK,12/09/2013,130,091
FREEPORT,725,28.948,-95.308,,USA,27/05/2009,940,006
FREMANTLE,111,-32.056,115.739,53,AUS,21/09/2017,680,471
FRENCH FRIGATE SHOALS,1372,23.867,-166.283,107,USA,14/10/2013,760,016
FRENCH FRIGATE SHOALS B,2192,23.868,-166.288,107,USA,23/06/2014,760,017
FRIDAY HARBOR (OCEAN. LABS.),384,48.547,-123.010,,USA,02/02/2017,823,006
FUERTEVENTURA,2048,28.493,-13.858,,ESP,20/09/2017,370,006
FUKUE,1101,32.696,128.849,,JPN,08/02/2017,645,066
FULFORD HARBOUR,688,48.767,-123.450,,CAN,04/06/1996,822,096
FUNAFUTI,1452,-8.533,179.217,121,TUV,17/10/2002,732,011
FUNAFUTI B,1839,-8.502,179.195,121,TUV,25/01/2017,732,012
FUNCHAL,1030,32.644,-16.913,250,PRT,14/04/2009,365,001
FUNCHAL II,2024,32.651,-17.118,250,PRT,06/06/2017,365,010
FURUOGRUND,203,64.916,21.231,,SWE,01/03/2017,050,201
FYNSHAV,1197,54.995,9.987,,DNK,12/09/2013,130,062
GADEOKDO,1445,35.025,128.811,,KOR,25/04/2017,620,043
"GALVESTON I, PLEASURE PIER, TX",828,29.285,-94.788,217,USA,07/03/2012,940,007
"GALVESTON II, PIER 21, TX",161,29.310,-94.793,217,USA,02/02/2017,940,008
GAN II,1707,-0.683,73.150,27,MDV,29/10/2015,454,002
GANDIA,2058,38.995,-0.151,,ESP,20/09/2017,220,058
GANGRA,1369,21.950,88.017,,IND,15/04/2009,500,109
GARDEN REACH,369,22.550,88.300,,IND,27/06/2017,500,141
GARIBALDI,1285,45.553,-123.918,,USA,22/05/1987,823,014
GARIBALDI II,2214,45.555,-123.918,,USA,02/02/2017,823,017
GAZENICA,1577,44.083,15.267,,HRV,31/05/1990,280,014
GDANSK/NOWY PORT,64,54.400,18.683,,POL,19/10/2001,110,022
GDYNIA,364,54.533,18.550,,POL,01/01/1980,110,032
GEDSER,120,54.573,11.926,,DNK,12/09/2013,130,001
GEIBERGA (GEIBERGA OSTROV),648,77.600,101.517,,RUS,06/01/2003,030,387
GENERAL DYNAMICS PIER,1721,33.017,-79.917,,USA,16/07/1993,960,042
GENOVA,59,44.400,8.900,,ITA,27/01/2016,250,011
GENOVA II,2090,44.410,8.926,,ITA,30/08/2016,250,012
GEOMUNDO,1546,34.028,127.309,,KOR,25/04/2017,620,035
GERALDTON,1031,-28.776,114.602,,AUS,29/06/2016,680,474
GETING,1703,6.226,102.107,,MYS,21/11/2017,550,021
GIBARA,563,21.108,-76.125,276,CUB,09/01/2018,930,031
GIBRALTAR,981,36.148,-5.365,248,GIB,01/09/2014,215,001
GIJON II,1871,43.558,-5.698,,ESP,20/09/2017,200,022
GINGERVILLE CREEK,1203,38.958,-76.555,,USA,01/01/1980,960,079
GIRNE,1911,35.350,33.333,,CYP,12/06/2012,315,010
GISBORNE,1613,-38.675,178.022,,NZL,13/06/2017,690,008
GLADSTONE,825,-23.854,151.314,,AUS,30/06/2016,680,071
GLOUCESTER POINT,597,37.247,-76.500,,USA,26/01/2005,960,072
GOLD COAST SEAWAY 2,1704,-27.950,153.417,,AUS,30/06/2016,680,604
GOLOMIANYI (GOLOMIANYI OSTROV),729,79.550,90.617,,RUS,13/08/2013,030,374
GOODS ISLAND,1368,-10.562,142.152,,AUS,30/06/2016,680,602
GOTEBORG - KLIPPAN,74,57.683,11.900,,SWE,01/03/2012,050,031
GOTEBORG - TORSHAMNEN,1236,57.685,11.791,233,SWE,01/03/2017,050,032
GOTEBORG-RINGON,2133,57.717,11.967,,SWE,01/11/2012,050,030
GRANADILLA,2050,28.085,-16.490,,ESP,24/01/2013,370,034
GRAND ISLE,526,29.263,-89.957,,USA,02/02/2017,940,021
GRAND PORT,930,-20.367,57.750,,MUS,01/01/1980,450,001
GREYMOUTH,993,-42.450,171.200,,NZL,01/01/1980,690,051
GRINDAVIK,877,63.833,-22.433,,ISL,01/01/1980,010,011
GRINDSTONE,1143,47.383,-61.867,,CAN,01/01/1980,970,034
GRONDINES,387,46.583,-72.033,,CAN,04/06/1996,970,085
GRONSKAR,77,59.283,19.033,,SWE,06/11/1991,050,151
GUADALUPE ISLAND II,1413,28.883,-118.300,160,MEX,29/01/1992,830,012
GUANTANAMO BAY,418,19.907,-75.147,,CUB,17/07/2001,930,051
GUAYMAS,693,27.917,-110.900,,MEX,14/05/2013,830,031
GUIRIA,1053,10.567,-62.283,,VEN,20/04/2001,900,006
GUNSAN (OUTER PORT),1527,35.976,126.563,,KOR,25/04/2017,620,022
HACHINOHE I,460,40.533,141.533,,JPN,01/01/1980,642,001
HACHINOHE II,1266,40.532,141.528,,JPN,22/02/2012,642,002
HADERA,1797,32.470,34.863,80,ISR,07/11/2012,320,016
HAGI,1306,34.433,131.417,,JPN,03/02/1993,647,015
HAIFA II,2221,32.829,34.991,,ISR,03/05/2016,320,010
HAIKOU,1428,20.017,110.283,,CHN,17/01/2012,610,007
HAKATA,1094,33.619,130.408,,JPN,08/02/2017,645,091
HAKODATE I,813,41.782,140.725,88,JPN,08/02/2017,641,031
HAKODATE II,671,41.767,140.717,88,JPN,06/12/1990,641,032
HALDIA,1270,22.033,88.100,,IND,27/06/2017,500,110
HALIFAX,96,44.667,-63.583,222,CAN,29/06/2017,970,011
HAMADA II,1585,34.897,132.066,326,JPN,09/02/2017,647,023
HAMINA,315,60.563,27.179,,FIN,20/12/2017,060,361
HAMMERFEST,758,70.665,23.683,,NOR,07/11/2017,040,021
HANASAKI,139,43.283,145.583,,JPN,01/01/1980,641,011
HANASAKI II,1442,43.278,145.568,,JPN,09/02/2017,641,012
HANKO / HANGO,71,59.823,22.977,,FIN,20/12/2017,060,331
HANSTHOLM,703,57.119,8.596,,DNK,12/09/2013,130,111
HARLINGEN,25,53.176,5.409,,NLD,17/07/2017,150,021
HARRINGTON HBR,176,50.500,-59.483,,CAN,25/10/1993,970,101
HARSTAD,681,68.801,16.548,,NOR,24/01/2018,040,061
HARWICH,742,51.948,1.292,,GBR,28/06/2017,170,073
HAULOVER PIER,1717,25.903,-80.120,,USA,24/11/1994,960,002
HAY POINT,1246,-21.283,149.300,,AUS,30/06/2016,680,606
HEIMSJO,313,63.425,9.102,,NOR,24/01/2018,040,151
HEL,146,54.600,18.800,,POL,30/03/2016,110,042
HELGEROA,1113,58.995,9.856,,NOR,24/01/2018,040,310
HELIGMAN,231,60.200,19.300,,ALA,01/01/1980,060,251
HELSINKI,14,60.154,24.956,,FIN,20/12/2017,060,351
HERMANUS,928,-34.433,19.233,,ZAF,01/01/1980,430,071
HERNE BAY,2276,51.382,1.116,,GBR,08/03/2016,170,102
HEUKSANDO,1489,34.684,125.436,,KOR,23/05/2017,620,028
HEYSHAM,936,54.032,-2.920,,GBR,31/05/2016,170,225
HIERRO,2051,27.784,-17.902,,ESP,20/09/2017,370,009
HILLARYS,1761,-31.826,115.739,,AUS,25/01/2017,680,472
"HILO, HAWAII ISLAND",300,19.730,-155.055,287,USA,02/02/2017,760,061
HINKLEY POINT,1758,51.211,-3.131,,GBR,28/06/2017,170,168
HIRON POINT,1451,21.783,89.467,,BGD,08/06/2005,510,003
HIROSIMA,1028,34.353,132.465,,JPN,08/02/2017,643,044
HIRTSHALS,89,57.596,9.964,,DNK,12/09/2013,130,101
HOBART,838,-42.877,147.341,,AUS,28/07/2016,680,201
HOEK VAN HOLLAND,22,51.978,4.120,,NLD,17/07/2017,150,051
HOLYHEAD,5,53.314,-4.620,,GBR,28/06/2017,170,191
HONDAU,841,20.667,106.800,,VNM,17/11/2015,605,081
HONIARA II,1373,-9.433,159.950,66,SLB,07/11/1996,734,002
HONIARA-B,1861,-9.429,159.955,66,SLB,25/01/2017,734,004
HONNGU,1003,18.800,105.767,,VNM,17/11/2015,605,061
HONNINGSVAG,1267,70.980,25.973,,NOR,24/01/2018,040,015
HONOLULU,155,21.307,-157.867,108,USA,02/02/2017,760,031
HORNBAEK,119,56.091,12.458,,DNK,12/09/2013,130,031
HOSOJIMA,133,32.429,131.669,,JPN,08/02/2017,645,011
HUELVA,1883,37.132,-6.834,,ESP,20/09/2017,220,005
IBIZA,1932,38.911,1.450,,ESP,20/09/2017,225,021
IGNEDA,1926,41.883,28.017,,TUR,09/07/2013,310,018
IJMUIDEN,32,52.462,4.555,,NLD,17/07/2017,150,041
ILE D'AIX,2236,46.007,-1.174,,FRA,23/03/2017,190,123
ILE ROYALE,2012,5.284,-52.587,202,GUF,22/03/2017,876,011
ILFRACOMBE,1214,51.211,-4.112,,GBR,31/05/2016,170,166
ILHA FISCAL,1032,-22.897,-43.167,195,BRA,06/06/2017,874,092
IMBITUBA,542,-28.233,-48.650,351,BRA,01/01/1980,874,031
IMMINGHAM,286,53.630,-0.187,,GBR,06/05/2015,170,061
IMPERIA,2078,43.878,8.019,,ITA,18/10/2016,250,006
INCE POINT,1300,-10.508,142.310,,AUS,30/06/2016,680,601
INCHEON,956,37.452,126.592,,KOR,25/04/2017,620,011
INDIAN RIVER INLET,1337,38.610,-75.070,,USA,02/10/1987,960,084
INVERGORDON,944,57.683,-4.167,,GBR,01/01/1980,170,007
IQUIQUE,1963,-20.217,-70.167,,CHL,08/04/2013,850,006
IQUIQUE II,2261,-20.204,-70.148,,CHL,09/11/2017,850,007
IRAKLION,634,35.348,25.153,,GRC,18/07/2013,290,101
IRAKLION II,2165,35.348,25.153,,GRC,01/11/2017,290,102
ISABELA DE SAGUA,1909,22.933,-80.017,,CUB,09/01/2018,930,081
ISACHENKO (ISACHENKO OSTROV),734,77.150,89.200,,RUS,06/01/2003,030,370
ISHIGAKI,1411,24.333,124.167,,JPN,15/12/1989,646,041
ISHIGAKI II,1671,24.332,124.164,,JPN,09/02/2017,646,042
ISKENDERUN II,2020,36.594,36.181,,TUR,28/06/2010,310,066
ISLA DE CEDROS,1430,28.100,-115.183,,MEX,29/01/1992,830,014
ISLA MARTIN GARCIA,864,-34.183,-58.250,,ARG,01/01/1980,860,171
ISLAY (PORT ELLEN),1772,55.628,-6.190,,GBR,14/05/2012,170,244
ITO I,876,34.967,139.117,,JPN,01/01/1980,642,111
ITO II,1343,34.896,139.133,,JPN,09/02/2017,642,112
IWASAKI,121,40.583,139.917,,JPN,01/01/1980,647,101
IZUHARA,661,34.200,129.300,,JPN,04/05/1988,645,081
IZUHARA II,1586,34.198,129.292,,JPN,09/02/2017,645,082
IZVESTIA TSIK (IZVESTIA TSIK OSTROVA),728,75.950,82.950,,RUS,08/12/2014,030,360
JACKSONVILLE,716,30.350,-81.617,,USA,01/01/1980,960,012
JAMESTOWN LANDING STEPS,1845,-15.921,-5.718,264,SHN,03/06/2014,425,001
JEJU,1066,33.528,126.543,,KOR,25/04/2017,620,033
JERVIS BAY II,2312,-35.122,150.708,,AUS,22/11/2016,680,164
JOHNSTON ISLAND,598,16.738,-169.530,109,UMI,26/01/2005,760,011
JOHOR BAHRU,248,1.462,103.792,,MYS,04/05/2017,550,011
"JOLO, SULU",260,6.067,121.000,70,PHL,30/03/1999,660,141
JUAN FERNANDEZ-C,1644,-33.636,-78.830,176,CHL,07/06/2017,850,039
JUNEAU,405,58.298,-134.412,,USA,02/02/2017,821,044
JUNGFRUSUND,18,59.950,22.367,,FIN,01/01/1980,060,311
JURONG,1275,1.300,103.717,,SGP,15/08/2005,555,031
KABELVAG,45,68.213,14.482,,NOR,24/01/2018,040,091
KAGOSHIMA I,868,31.600,130.567,,JPN,01/01/1980,645,040
"KAHULUI HARBOR, MAUI ISLAND",521,20.895,-156.477,,USA,02/02/2017,760,051
KAINAN,701,34.144,135.191,,JPN,08/02/2017,643,013
KALAMAI,411,37.024,22.116,,GRC,01/11/2017,290,021
KALININGRAD,1719,54.700,20.483,,RUS,16/01/2018,080,179
KALIX,2101,65.697,23.096,,SWE,01/03/2017,050,205
KAMAISI II,1346,39.273,141.889,,JPN,09/02/2017,642,017
KAMINATO II (HATIZYO SIMA),1440,33.130,139.805,,JPN,09/02/2017,642,097
KANDLA,596,23.017,70.217,,IND,27/06/2017,500,011
KANMEN,934,28.083,121.283,94,CHN,21/02/2017,610,016
KANTON ISLAND,575,-2.800,-171.717,145,KIR,01/01/1980,750,011
KANTON ISLAND-B,1329,-2.817,-171.717,145,KIR,14/10/2013,750,012
KAOHSIUNG II,1356,22.533,120.317,,TWN,28/04/1998,612,012
KAPINGAMARANGI,1473,1.100,154.783,117,FSM,28/10/2015,710,026
KARACHI,204,24.812,66.975,30,PAK,30/11/2017,490,021
KARIYA,1318,33.473,129.849,,JPN,09/02/2017,645,075
KARUMBA,835,-17.500,140.833,,AUS,21/09/2017,680,018
KARWAR,1273,14.800,74.117,,IND,27/06/2017,500,067
KASHIWAZAKI,753,37.357,138.508,,JPN,08/02/2017,647,081
KASKINEN / KASKO,285,62.344,21.215,,FIN,20/12/2017,060,071
KATAKOLON,1240,37.645,21.320,,GRC,01/11/2017,290,017
KATSUURA,1191,35.129,140.249,,JPN,08/02/2017,642,055
KAVALLA,375,40.935,24.412,,GRC,07/08/2013,290,061
KAVIENG,1608,-2.583,150.800,,PNG,03/07/2013,670,031
"KAWAIHAE, HAWAII ISLAND",2128,20.037,-155.830,,USA,02/02/2017,760,056
KEELUNG II,545,25.133,121.733,,TWN,28/04/1998,612,002
KEMI,229,65.673,24.515,,FIN,20/12/2017,060,001
KEPPEL HARBOUR,1534,1.267,103.817,44,SGP,09/06/1992,555,003
KERGUELEN,1849,-49.352,70.256,23,ATF,04/04/2017,434,001
KETCHIKAN,225,55.332,-131.625,,USA,02/02/2017,821,051
KEY COLONY BEACH,1424,24.718,-81.017,,USA,06/03/2000,940,092
KEY WEST,188,24.555,-81.807,216,USA,02/02/2017,940,071
KHALKIS NORTH,1237,38.472,23.593,,GRC,01/11/2017,290,034
KHALKIS SOUTH,1441,38.461,23.589,,GRC,01/11/2017,290,033
KHEPUPARA,1454,21.833,89.833,,BGD,17/10/2002,510,037
KHIOS,408,38.372,26.141,,GRC,14/06/2016,290,071
KIDDERPORE,48,22.533,88.333,,IND,01/01/1980,500,151
KIEL-HOLTENAU,789,54.372,10.157,,DEU,08/12/2016,125,021
KIGILIAH,642,73.333,139.867,,RUS,08/12/2014,030,485
KING BAY,1549,-20.624,116.749,,AUS,30/06/2016,680,486
"KING COVE, DEER PASSAGE",2302,55.062,-162.327,,USA,02/02/2017,821,005
"KINGS POINT, NEW YORK",2322,40.810,-73.765,,USA,16/02/2017,960,140
KINGSTON,515,-36.833,139.850,,AUS,01/01/1980,680,271
KINLOCHBERVIE,1775,58.457,-5.050,,GBR,28/06/2017,170,255
KIPTOPEKE BEACH,636,37.165,-75.988,,USA,02/02/2017,960,083
KJOLSDAL,398,61.917,5.633,,NOR,10/10/1994,040,201
KLAGSHAMN,330,55.522,12.894,,SWE,01/03/2017,050,051
KLAIPEDA,118,55.700,21.133,,LTU,17/07/2012,084,161
KNYSNA,950,-34.049,23.046,,ZAF,23/02/2017,430,086
KO LAK,174,11.800,99.817,39,THA,17/07/2017,600,021
KO MATTAPHON,1792,10.450,99.250,,THA,17/07/2017,600,011
KO SICHANG,449,13.150,100.817,,THA,28/05/2003,600,051
KO TAPHAO NOI,446,7.833,98.433,42,THA,17/07/2017,545,001
KOBBAKLINTAR,63,60.033,19.883,,ALA,01/01/1980,060,261
KOBE,846,34.683,135.183,,JPN,21/02/1997,643,024
KOBE II,1790,34.682,135.190,,JPN,09/02/2017,643,025
KOBENHAVN,82,55.705,12.600,,DNK,12/09/2013,130,021
KOCHI II,1184,33.500,133.583,,JPN,01/01/1980,644,002
KOCHI III,1567,33.499,133.569,,JPN,09/02/2017,644,005
"KODIAK ISLAND, WOMENS BAY",567,57.732,-152.512,,USA,02/02/2017,821,011
KOLOBRZEG,643,54.183,15.550,,POL,19/10/2001,110,072
KOLUCHIN,621,67.483,-174.650,,RUS,16/01/2003,030,640
KOMATSUSHIMA,809,34.009,134.588,,JPN,08/02/2017,644,051
KOPER,1009,45.548,13.725,,SVN,18/12/1997,279,002
KORSOR,113,55.332,11.142,,DNK,12/09/2013,130,041
KOSEROW,1448,54.060,14.001,,DEU,13/12/2017,120,001
KOSYSTYI (KOSYSTYI MYS),736,73.650,109.733,,RUS,06/01/2003,030,394
KOTA KINABALU,1733,5.983,116.067,,MYS,21/11/2017,665,031
KOTELNYI (KOTELNYI OSTROV),641,76.000,137.867,,RUS,08/12/2014,030,475
KOTKA,164,60.450,26.950,,FIN,01/01/1980,060,358
KOZU SIMA,1061,34.209,139.132,,JPN,08/02/2017,642,099
KRASNOFLOTSKIE (KRASNOFLOTSKIE OSTROVA),738,78.600,98.833,,RUS,16/05/2013,030,385
KRENKELIA (HEISA OSTROV),1012,80.617,58.050,,RUS,17/01/2003,030,014
KRISTIANSUND,682,63.114,7.734,,NOR,24/01/2018,040,161
KUCHINOTSU,1386,32.605,130.195,,JPN,09/02/2017,645,062
KUDAT,1876,6.879,116.844,,MYS,21/11/2017,665,038
KUKUP,1677,1.325,103.443,,MYS,21/11/2017,550,010
KUNGSHOLMSFORT,70,56.105,15.589,,SWE,01/03/2017,050,081
KUNGSVIK,2113,58.997,11.127,,SWE,01/03/2017,050,009
KUNSAN,959,35.983,126.717,,KOR,25/01/2001,620,021
KURE I,1320,33.334,133.243,,JPN,09/02/2017,644,004
KURE II,749,34.233,132.533,,JPN,01/01/1980,643,041
KURE III,1023,34.233,132.550,,JPN,01/01/1980,643,042
KURE IV,1209,34.241,132.550,,JPN,08/02/2017,643,043
KUSHIMOTO,134,33.476,135.773,85,JPN,08/02/2017,642,141
KUSHIRO,518,42.976,144.371,89,JPN,08/02/2017,641,021
KWAJALEIN,513,8.732,167.735,111,MHL,08/03/2016,720,011
L'ESTARTIT,1764,42.050,3.200,,ESP,29/08/2017,220,081
LA CORUNA I,484,43.369,-8.398,243,ESP,07/02/2017,200,030
LA CORUNA II,763,43.364,-8.399,243,ESP,30/11/1998,200,031
LA CORUNA III,1808,43.357,-8.389,243,ESP,20/09/2017,200,032
LA GOMERA,2065,28.088,-17.108,,ESP,20/09/2017,370,020
LA JOLLA (SCRIPPS PIER),256,32.867,-117.257,159,USA,02/02/2017,823,071
LA LIBERTAD,555,-2.200,-80.917,172,ECU,01/01/1980,845,011
LA LIBERTAD II,544,-2.200,-80.917,172,ECU,04/11/2015,845,012
LA MADDALENA,109,41.233,9.367,,ITA,01/01/1980,240,001
LA PALMA,2064,28.678,-17.768,,ESP,20/09/2017,370,018
LA PALOMA,764,-34.650,-54.150,,URY,04/08/2017,870,031
LA PAZ,695,24.167,-110.350,,MEX,14/05/2013,830,021
LA PUSH,2298,47.913,-124.637,,USA,02/02/2017,823,002
LA ROCHELLE-LA PALLICE,466,46.158,-1.221,,FRA,22/03/2017,190,121
LA UNION,558,13.333,-87.817,,SLV,01/01/1980,833,001
LABUAN 2,1879,5.273,115.250,,MYS,21/11/2017,665,002
LAE,1303,-6.750,147.000,,PNG,03/07/2013,670,002
LAGOS,162,37.100,-8.667,,PRT,27/01/2016,210,031
LAHAT DATU,1877,5.019,118.346,,MYS,21/11/2017,665,053
LAJES DAS FLORES,2171,39.378,-31.169,,PRT,06/06/2017,360,036
LAKE WORTH PIER,1696,26.612,-80.033,,USA,07/02/2017,960,004
LAMESHUR BAY,2119,18.317,-64.723,,VIR,02/02/2017,939,021
LAMPEDUSA,2079,35.500,12.604,,ITA,18/10/2016,260,025
LAMU B,2198,-2.272,40.903,,KEN,28/10/2015,470,014
"LANAI ISLAND, KAUMALAPAU",2273,20.780,-156.900,,USA,05/01/2016,760,043
LANDSORT,68,58.742,17.865,,SWE,01/03/2012,050,121
LANDSORT NORRA,2132,58.769,17.859,,SWE,01/03/2017,050,123
LANGARA POINT,840,54.250,-133.033,,CAN,05/07/2005,822,005
LANGOSTEIRA,2308,43.347,-8.530,,ESP,10/01/2017,200,033
LAOHUTAN,1513,38.867,121.683,79,CHN,20/04/1998,610,045
LARK HARBOUR,1044,49.100,-58.367,,CAN,25/10/1993,970,106
LAS PALMAS C (PUERTO DE LA LUZ),565,28.147,-15.408,251,ESP,07/02/2017,370,045
LAS PALMAS D,1802,28.141,-15.412,251,ESP,20/09/2017,370,046
"LAS PALMAS, PUERTO DE LA LUZ",590,28.167,-15.417,251,ESP,25/11/1993,370,041
LAUTOKA,1805,-17.605,177.438,,FJI,25/01/2017,742,021
LE CONQUET,1294,48.359,-4.781,,FRA,22/03/2017,190,089
LE CROUESTY,1921,47.543,-2.895,,FRA,22/03/2017,190,105
LE HAVRE,453,49.482,0.106,,FRA,22/03/2017,190,051
LE VERDON,459,45.550,-1.067,,FRA,01/01/1980,190,131
"LEGASPI, ALBAY",522,13.150,123.750,72,PHL,13/12/2017,660,021
LEITH,802,55.983,-3.167,,GBR,04/08/1989,170,031
LEITH II,1526,55.990,-3.182,,GBR,28/06/2017,170,032
LEIXOES,791,41.183,-8.700,,PRT,09/11/1998,210,012
LEMSTROM,84,60.100,20.017,,ALA,01/01/1980,060,271
LEROS,1233,37.130,26.848,,GRC,01/11/2017,290,091
LERWICK,830,60.154,-1.140,236,GBR,28/06/2017,170,001
LES SABLES D OLONNE,1747,46.498,-1.794,,FRA,22/03/2017,190,116
LESKINA (LESKINA MYS),654,72.317,79.567,,RUS,06/01/2003,030,340
LEVKAS,1239,38.835,20.712,,GRC,01/11/2017,290,004
LEWES (BREAKWATER HARBOR),224,38.782,-75.120,,USA,02/02/2017,960,085
"LEWISETTA, VIRGINIA",2324,37.995,-76.465,,USA,16/02/2017,960,075
LIANYUNGANG,1405,34.750,119.450,,CHN,17/01/2012,610,033
LIEPAJA,26,56.533,20.983,,LVA,30/03/2016,083,151
"LIME TREE BAY, ST CROIX",1447,17.693,-64.753,,VIR,02/02/2017,939,011
LIMHAMN,323,55.583,12.933,,SWE,01/01/1980,050,061
LINAKHAMARI,365,69.650,31.367,,RUS,01/01/1980,030,025
LISBON,1336,38.700,-9.133,,PRT,30/11/1988,210,023
LITTLE CORNWALLIS ISLAND,1822,75.383,-96.950,,CAN,04/06/1996,970,156
LIVERPOOL (GLADSTONE DOCK),1774,53.450,-3.018,,GBR,28/06/2017,170,214
LIVERPOOL GEORGES AND PRINCES PIERS,15,53.400,-3.000,,GBR,27/01/2016,170,211
LIVORNO II,2080,43.546,10.299,,ITA,18/10/2016,250,026
LLANDUDNO,1854,53.332,-3.825,,GBR,28/06/2017,170,196
LOHM,233,60.100,21.667,,FIN,01/01/1980,060,301
LOK ON PAI,1685,22.367,114.000,,HKG,16/05/2000,611,019
LOMBRUM,1860,-2.042,147.374,331,PNG,25/01/2017,670,043
LORD HOWE ISLAND,818,-31.517,159.067,148,AUS,22/11/2016,680,121
LORETO,1410,26.017,-111.367,,MEX,29/01/1992,830,023
LORNE,1836,-38.547,143.989,,AUS,25/01/2017,680,226
LOS ANGELES,245,33.720,-118.272,,USA,02/02/2017,823,051
LOW HEAD,2071,-41.064,146.795,,AUS,07/07/2016,680,194
LOWER ESCUMINAC,1349,47.083,-64.883,,CAN,29/06/2017,970,040
LOWESTOFT,754,52.473,1.750,,GBR,28/06/2017,170,068
LUCINDA,1630,-18.517,146.383,,AUS,30/06/2016,680,047
LUDERITZ,911,-26.643,15.155,,NAM,05/04/2016,427,011
LUKA KOPER,1817,45.548,13.725,,SVN,13/03/2007,279,003
LUMUT,1594,4.240,100.613,43,MYS,21/11/2017,550,005
LUSI,979,32.133,121.617,283,CHN,21/02/2017,610,032
LYMINGTON,2281,50.740,-1.507,,GBR,28/09/2016,170,136
LYOKKI,16,60.850,21.183,,FIN,01/01/1980,060,221
LYPYRTTI,17,60.600,21.233,,FIN,01/01/1980,060,231
LYTTELTON II,259,-43.606,172.722,,NZL,17/01/2003,690,022
MAASSLUIS,9,51.918,4.250,,NLD,17/07/2017,150,061
"MACABALAN PORT, CAGAYAN DE ORO",2154,8.500,124.667,,PHL,13/12/2017,660,145
MACAU,269,22.200,113.550,,MAC,06/09/1990,609,001
MACKAY,564,-21.100,149.233,,AUS,30/06/2016,680,061
MADANG,1254,-5.217,145.800,,PNG,03/07/2013,670,061
MADEIRA,1736,-2.567,-44.383,200,BRA,14/11/2017,874,155
MAGUEYES ISLAND,759,17.970,-67.045,,PRI,02/02/2017,938,011
MAHON,2062,39.893,4.271,,ESP,20/09/2017,225,016
MAISAKA,1089,34.682,137.609,,JPN,08/02/2017,642,126
MAIZURU I,663,35.483,135.400,,JPN,01/01/1980,647,061
MAIZURU II,1387,35.477,135.387,,JPN,09/02/2017,647,062
MAIZURU III,1523,35.450,135.317,,JPN,21/04/2009,647,063
MAJURO-B,1217,7.100,171.367,112,MHL,17/10/2002,720,016
MAJURO-C,1838,7.106,171.373,112,MHL,25/01/2017,720,017
"MAKAR, GENERAL SANTOS CITY",2153,6.100,125.150,,PHL,13/12/2017,660,128
MAKURAZAKI I,1142,31.267,130.300,,JPN,01/01/1980,645,042
MALAGA,496,36.713,-4.415,,ESP,27/04/2015,220,031
MALAGA II,1810,36.712,-4.417,,ESP,20/09/2017,220,032
MALAKAL-B,1252,7.333,134.467,120,PLW,29/10/2015,711,021
"MALE-B, HULULE",1753,4.183,73.533,28,MDV,15/10/2013,454,011
MALIN HEAD,916,55.367,-7.333,239,IRL,15/01/2004,175,011
MALOY,486,61.934,5.113,,NOR,07/11/2017,040,211
MALYE KARMAKULY,609,72.367,52.700,,RUS,17/01/2003,030,016
MALYI TAIMYR (MALYI TAIMYR OSTROV),620,78.083,106.817,,RUS,08/01/2003,030,414
MALYSHEVA (MALYSHEVA OSTROV),741,72.067,129.833,,RUS,08/01/2003,030,452
MAMBAJAO CAMGUIN,2174,9.250,124.733,,PHL,13/12/2017,660,150
MANFREDONIA,1262,41.617,15.917,,ITA,01/01/1980,270,019
MANGALORE,696,12.850,74.833,,IND,27/01/2016,500,071
MANGALORE (PANAMBURU),1423,12.917,74.800,,IND,27/06/2017,500,070
"MANILA, S. HARBOR",145,14.583,120.967,73,PHL,13/12/2017,660,011
MANTYLUOTO,172,61.594,21.463,,FIN,20/12/2017,060,101
MANUS ISLAND,1609,-2.017,147.267,,PNG,03/07/2013,670,041
MANZANILLO,1934,20.333,-77.150,,CUB,09/01/2018,930,095
MANZANILLO,737,19.050,-104.333,163,MEX,23/01/1992,830,071
MANZANILLO 2,1818,19.067,-104.300,163,MEX,23/09/2015,830,072
MAPUTO,986,-25.967,32.567,,MOZ,12/10/2005,432,001
MAR DE AJO,1542,-36.700,-56.667,,ARG,02/03/1988,860,124
MAR DEL PLATA (NAVAL BASE),819,-38.033,-57.517,192,ARG,24/05/2017,860,101
MAR DEL PLATA (PUERTO),857,-38.033,-57.533,192,ARG,01/01/1980,860,091
MARATHON SHORES,1187,24.733,-81.033,,USA,01/01/1980,940,091
MARE,2239,-21.548,167.877,,NCL,23/03/2017,740,022
MARIEL BOCA,2286,23.021,-82.756,,CUB,07/03/2017,930,023
MARII PRONCHISHEVOI (BUKHTA),667,75.533,113.433,,RUS,08/01/2003,030,420
MARIN,2181,42.406,-8.691,,ESP,20/09/2017,200,038
MARMARA EREGLISI,2010,40.967,27.967,,TUR,28/06/2010,310,037
MARSAXLOKK (FORMALLY VALLETTA),1735,35.820,14.533,,MLT,23/06/2016,265,001
MARSEILLE,61,43.279,5.354,205,FRA,22/03/2017,230,051
MARVIKEN,2104,58.554,16.837,,SWE,01/03/2017,050,115
MASIRAH,1887,20.683,58.867,,OMN,29/10/2015,487,012
MASSACRE BAY,491,52.833,173.200,,USA,01/01/1980,820,001
MATAPEAKE,1338,38.957,-76.355,,USA,02/10/1987,960,082
MATARANI,458,-17.000,-72.117,,PER,01/03/1990,848,051
MATARANI B,2188,-17.002,-72.108,,PER,04/11/2015,848,055
"MATI, DAVAO ORIENTAL",2156,6.950,126.217,,PHL,13/12/2017,660,116
MATSUYAMA I,880,33.867,132.700,,JPN,01/01/1980,644,031
MATSUYAMA II,1062,33.859,132.712,,JPN,08/02/2017,644,032
MAYPORT,316,30.393,-81.432,,USA,01/06/2001,960,011
"MAYPORT (BAR PILOTS DOCK), FLORIDA",2326,30.398,-81.428,,USA,16/02/2017,960,010
MAZATLAN,712,23.200,-106.417,,MEX,14/02/1996,830,051
MELILLA,2057,35.291,-2.929,,ESP,20/09/2017,340,003
MELINKA,2265,-43.898,-73.748,,CHL,09/11/2017,850,055
MENTES/IZMIR,1679,38.433,26.717,,TUR,09/07/2013,310,042
MERA,359,34.919,139.825,86,JPN,08/02/2017,642,061
MIAMI BEACH,363,25.768,-80.132,,USA,05/10/1987,960,001
MIDWAY ISLAND,523,28.212,-177.360,106,UMI,02/02/2017,760,001
MIKUNI,1190,36.255,136.149,,JPN,08/02/2017,647,065
MILFORD HAVEN (HAKIN),1700,51.707,-5.052,,GBR,28/06/2017,170,182
MILFORD HAVEN (NEWTON NOYES),66,51.700,-5.017,,GBR,20/02/1987,170,181
MILLPORT,755,55.750,-4.906,,GBR,28/06/2017,170,241
MILNER BAY (GROOTE EYLANDT),1160,-13.860,136.416,,AUS,25/01/2017,680,015
MINA SULMAN,1494,26.233,50.600,,BHR,17/01/2012,482,019
MINAMI IZU,1064,34.617,138.883,,JPN,21/04/2009,642,115
MIRI,1819,4.401,113.974,,MYS,04/05/2017,663,001
MISUMI,810,32.623,130.451,,JPN,07/02/2013,645,051
MIYAKE SIMA,1060,34.067,139.481,,JPN,08/02/2017,642,098
MIYAKO I,463,39.633,141.967,,JPN,01/01/1980,642,011
MIYAKO II,1149,39.643,141.975,,JPN,08/02/2017,642,012
MIYAZU,872,35.533,135.183,,JPN,01/01/1980,647,051
"MOBILE STATE DOCKS, ALABAMA",2327,30.705,-88.040,,USA,16/02/2017,940,039
MOKPO,954,34.780,126.376,,KOR,25/04/2017,620,027
MOKUOLOE ISLAND,823,21.432,-157.790,,USA,02/02/2017,760,041
MOMBASA II,2183,-4.067,39.650,8,KEN,28/10/2015,470,002
MOMMARK,271,54.933,10.067,,DNK,01/01/1980,130,061
MONA ISLAND,2122,18.090,-67.938,,PRI,02/02/2017,938,041
MONACO (FONTVIEILLE),788,43.729,7.421,,MCO,22/03/2017,233,011
MONBETU I,772,44.350,143.367,,JPN,01/01/1980,641,001
MONBETU II,1470,44.350,143.367,,JPN,20/02/2013,641,002
MONTAUK,519,41.048,-71.960,,USA,02/02/2017,960,135
MONTEREY,1352,36.605,-121.887,,USA,02/02/2017,823,036
MONTEVIDEO (PUNTA LOBOS),431,-34.900,-56.250,300,URY,02/05/2017,870,011
MOOLOOLABA 2,1493,-26.683,153.133,,AUS,30/06/2016,680,605
MOREHEAD CITY,719,34.717,-76.733,,USA,01/01/1980,960,062
MORMUGAO,1249,15.417,73.800,281,IND,27/06/2017,500,065
MORZHOVAIA (HARASAVEI MYS),732,71.417,67.583,,RUS,16/05/2013,030,318
MOSJOEN,781,65.850,13.200,,NOR,01/01/1980,040,121
MOSSEL BAY,910,-34.179,22.135,,ZAF,23/02/2017,430,081
MOTRIL 2,1940,36.720,-3.524,,ESP,20/09/2017,220,035
MOTURIKI ISLAND,978,-37.632,176.185,,NZL,23/11/2010,690,004
MOULMEIN,747,16.483,97.617,141,MMR,01/01/1980,530,021
MOURILYAN HARBOUR,1629,-17.583,146.083,,AUS,30/06/2016,680,043
MOZAMBIQUE ISLAND,1054,-15.033,40.733,,MOZ,01/01/1980,432,021
MOZI,912,33.950,130.967,,JPN,21/04/2009,645,004
MUKHO,1108,37.550,129.116,,KOR,25/04/2017,620,061
MUMBAI / BOMBAY (APOLLO BANDAR),43,18.917,72.833,,IND,27/01/2016,500,041
MUMBLES,1732,51.570,-3.975,,GBR,06/05/2015,170,179
MUOSTAH ( MUOSTAH OSTROV),649,71.550,130.033,,RUS,08/01/2003,030,455
MURMANSK,684,68.967,33.050,274,RUS,09/01/2018,030,018
MURMANSK II,687,68.967,33.050,274,RUS,17/01/2003,030,019
MURORAN,1194,42.350,140.950,,JPN,20/04/2009,641,029
MUROTOMISAKI,1390,33.266,134.164,,JPN,09/02/2017,644,061
MUSCAT,1716,23.633,58.567,,OMN,15/10/2013,487,021
MUSCAT B,2185,23.628,58.565,,OMN,28/10/2015,487,022
MYRTLE BEACH,862,33.683,-78.885,,USA,01/01/1980,960,051
MYS PIKSHUEVA,2026,69.550,32.433,,RUS,20/07/2010,030,030
MYS SHMIDTA,616,68.900,-179.367,,RUS,16/01/2003,030,610
"N. SPIT, HUMBOLDT BAY",1639,40.767,-124.217,,USA,02/02/2017,823,024
NAGAEVO,827,59.550,150.717,92,RUS,09/01/2018,630,011
NAGAPATTINAM,1308,10.767,79.850,,IND,27/06/2017,500,087
NAGASAKI,1100,32.735,129.866,83,JPN,08/02/2017,645,064
NAGOYA,860,35.083,136.883,,JPN,15/09/1997,642,131
NAGOYA II,1488,35.091,136.881,,JPN,09/02/2017,642,132
NAHA,1151,26.213,127.665,81,JPN,08/02/2017,646,024
NAIBA,1497,70.850,130.750,,RUS,08/01/2003,030,460
NAIN,1029,56.550,-61.700,224,CAN,29/06/2017,970,134
NAKANO SIMA,1105,29.842,129.848,,JPN,08/02/2017,646,011
NAN SHA,1730,9.550,112.880,,CHN,21/02/2017,610,003
NANOOSE BAY,1825,49.267,-124.133,,CAN,04/06/1996,822,033
NANTUCKET ISLAND,1111,41.285,-70.097,,USA,02/02/2017,960,166
NAOS ISLAND,581,8.918,-79.550,,PAN,01/01/1980,840,021
NAOS ISLAND 2,1783,8.918,-79.533,,PAN,07/10/1998,840,022
NAPIER,1750,-39.476,176.920,,NZL,13/06/2017,690,009
NAPLES,1107,26.132,-81.807,,USA,02/02/2017,940,066
NAPOLI (ARSENALE),129,40.867,14.267,,ITA,01/01/1980,250,041
NAPOLI (MANDRACCIO),105,40.867,14.267,,ITA,01/01/1980,250,051
NAPOLI II,2092,40.841,14.269,,ITA,18/10/2016,250,046
NARVIK,312,68.428,17.426,,NOR,07/11/2017,040,081
NASE I,887,28.383,129.500,,JPN,01/01/1980,646,001
NASE II,1018,28.383,129.500,,JPN,01/01/1980,646,002
NASE III,1522,28.500,129.500,,JPN,09/02/2017,646,003
NAURU,1374,-0.533,166.900,114,NRU,14/02/1996,715,001
NAURU-B,1844,-0.529,166.910,114,NRU,25/01/2017,715,002
"NAWILIWILI BAY, KAUAI ISLAND",756,21.953,-159.355,,USA,02/02/2017,760,021
NEAH BAY,385,48.367,-124.612,,USA,02/02/2017,823,001
NEDRE GAVLE,99,60.683,17.167,,SWE,06/11/1991,050,171
NEDRE NYKOPING,170,58.750,17.017,,SWE,01/01/1980,050,111
NEDRE SODERTALJE,31,59.200,17.617,,SWE,06/11/1991,050,131
NELSON,787,-41.261,173.273,,NZL,13/06/2017,690,071
NEMKOVA (NEMKOVA OSTROV),797,71.417,150.750,,RUS,16/01/2003,030,521
NETTEN,613,66.967,-171.933,,RUS,16/01/2003,030,650
NEUVILLE,192,46.700,-71.567,,CAN,29/06/2017,970,089
NEVLUNGHAVN,401,58.967,9.883,,NOR,01/01/1980,040,311
NEW WESTMINSTER,1245,49.200,-122.917,,CAN,29/06/2017,822,075
"NEW CANAL STATION, LOUISIANA",2328,30.027,-90.113,,USA,16/02/2017,940,028
NEW LONDON,429,41.360,-72.090,,USA,02/02/2017,960,151
NEW ROCHELLE,856,40.893,-73.782,,USA,05/06/1987,960,143
NEW YORK (THE BATTERY),12,40.700,-74.013,,USA,02/02/2017,960,121
NEWCASTLE I,320,-32.917,151.800,,AUS,01/01/1980,680,131
NEWCASTLE II,1335,-32.917,151.800,,AUS,04/11/1987,680,132
NEWCASTLE III,267,-32.917,151.800,,AUS,12/04/1989,680,133
NEWCASTLE V,837,-32.924,151.789,,AUS,30/06/2016,680,135
NEWHAVEN,1548,50.782,0.057,,GBR,28/06/2017,170,119
NEWLYN,202,50.103,-5.543,241,GBR,28/06/2017,170,161
NEWPORT,1832,51.550,-2.987,,GBR,28/06/2017,170,173
NEWPORT,351,41.505,-71.327,290,USA,02/02/2017,960,161
NEWPORT BAY,766,33.603,-117.882,,USA,16/07/1993,823,057
NEZUGASEKI,752,38.563,139.546,,JPN,08/02/2017,647,091
NICE,1468,43.696,7.286,,FRA,22/03/2017,230,081
NIEUWPOORT,489,51.150,2.733,,BEL,14/03/2017,160,031
"NIKISKI, ALASKA",1350,60.683,-151.397,,USA,02/02/2017,821,013
NISINOOMOTE,1096,30.735,130.992,,JPN,08/02/2017,645,031
"NOME, ALASKA",1800,64.500,-165.430,74,USA,02/02/2017,821,003
NORFOLK ISLAND,821,-29.058,167.954,124,NFK,28/09/2016,680,091
NORTH POINT,333,22.300,114.200,77,HKG,01/01/1980,611,011
NORTH SALAMINOS,1604,37.980,23.542,,GRC,07/08/2013,290,030
NORTH SALAMINOS II,1938,37.980,23.534,,GRC,12/08/2013,290,029
NORTH SHIELDS,95,55.007,-1.440,,GBR,28/06/2017,170,053
NORTH SOUND,1422,19.300,-81.317,,CYM,18/06/2007,931,001
NORTH SYDNEY,1299,46.217,-60.250,,CAN,29/06/2017,970,016
NOSY-BE,926,-13.400,48.283,15,MDG,01/01/1980,440,001
NOUMEA-CHALEIX,852,-22.300,166.433,123,NCL,13/09/1991,740,001
NOUMEA-NUMBO,2134,-22.242,166.416,123,NCL,22/03/2017,740,021
NUEVITAS PUNTA PRACTICO,2288,21.591,-77.110,,CUB,09/01/2018,930,035
NUKU HIVA,1555,-8.933,-140.083,142,PYF,14/10/2013,805,011
NUKU'ALOFA B,1842,-21.137,-175.181,125,TON,25/01/2017,744,002
NY-ALESUND,1421,78.929,11.938,345,SJM,07/11/2017,025,021
OCEAN CITY INLET,2292,38.328,-75.092,,USA,02/02/2017,960,086
ODOMARI,1097,31.024,130.689,,JPN,08/02/2017,645,033
OFUNATO I,1140,39.067,141.717,87,JPN,01/01/1980,642,021
OFUNATO II,1364,39.020,141.753,87,JPN,07/02/2017,642,022
OGA,1264,39.942,139.706,,JPN,08/02/2017,647,096
OGI,1344,37.815,138.281,,JPN,09/02/2017,647,086
OITA II,1293,33.266,131.687,,JPN,09/02/2017,645,009
OKADA,1091,34.789,139.391,,JPN,08/02/2017,642,100
OKHA,1395,22.467,69.083,,IND,27/06/2017,500,014
OKINAWA,1388,26.179,127.824,,JPN,09/02/2017,646,021
OLANDS NORRA UDDE,69,57.366,17.097,,SWE,01/03/2017,050,091
OMAEZAKI II,1263,34.608,138.222,,JPN,08/02/2017,642,124
OMINATO,679,41.250,141.150,,JPN,21/04/2009,647,111
ONAGAWA,674,38.433,141.467,,JPN,01/01/1980,642,028
ONAHAMA,635,36.938,140.892,,JPN,08/02/2017,642,041
ONISAKI,1026,34.904,136.824,,JPN,08/02/2017,642,128
ONSLOW,1631,-21.650,115.132,,AUS,30/06/2016,680,483
OOSTENDE,413,51.233,2.917,,BEL,14/03/2017,160,021
"OREGON INLET MARINA, NORTH CAROLINA",2325,35.795,-75.548,,USA,16/02/2017,960,066
ORTONA,972,42.350,14.400,,ITA,01/01/1980,270,026
ORTONA II,2097,42.356,14.415,,ITA,18/10/2016,270,028
OSAKA,1099,34.658,135.433,,JPN,08/02/2017,643,021
OSCARSBORG,33,59.678,10.605,,NOR,07/11/2017,040,331
OSHORO I,159,43.217,140.867,,JPN,01/01/1980,641,041
OSHORO II,1027,43.209,140.858,,JPN,08/02/2017,641,042
OSKARSHAMN,2106,57.275,16.478,,SWE,01/03/2017,050,085
OSLO,62,59.909,10.735,,NOR,15/11/2017,040,321
OTRANTO,990,40.133,18.500,,ITA,01/01/1980,270,011
OTRANTO II,2096,40.147,18.497,,ITA,18/10/2016,270,012
OULU / ULEABORG,79,65.040,25.418,,FIN,20/12/2017,060,011
OURA,1102,32.977,130.221,,JPN,08/02/2017,645,059
OWASE,1146,34.076,136.207,,JPN,08/02/2017,642,136
PADANG B,2193,-0.997,100.375,45,IDN,28/10/2015,560,033
PADRE ISLAND,919,26.068,-97.152,,USA,16/07/1993,940,003
PAGADIAN CITY,2152,7.817,123.433,,PHL,13/12/2017,660,125
PAGET ISLAND,886,32.367,-64.667,,BMU,01/01/1980,950,001
"PAGO BAY, GUAM",2130,13.428,144.797,,GUM,02/02/2017,701,010
PAGO PAGO,539,-14.280,-170.690,144,ASM,02/02/2017,745,001
PALERMO,832,-34.567,-58.400,,ARG,24/05/2017,860,161
PALERMO,107,38.133,13.333,,ITA,01/01/1980,260,011
PALERMO II,2093,38.121,13.371,,ITA,18/10/2016,260,012
PALINURO,2082,40.030,15.275,,ITA,18/10/2016,250,058
PALM BEACH,1669,26.700,-80.050,,USA,05/07/1990,960,005
PALMA,1087,39.550,2.620,,ESP,22/06/2011,225,001
PALMA DE MALLORCA,1892,39.551,2.639,,ESP,07/02/2017,225,011
PALMA DE MALLORCA 2,2061,39.560,2.637,,ESP,20/09/2017,225,012
PALMEIRA,1914,16.750,-22.983,329,CPV,06/01/2016,380,021
"PANAMA CITY, ST.ANDREWS BAY, FL",1641,30.152,-85.667,,USA,02/02/2017,940,042
PANWA CAPE,2230,7.801,98.406,,THA,02/07/2015,545,002
"PAPEETE-B, FARE UTE POINT, SOC.IS.",1397,-17.533,-149.573,140,PYF,28/10/2015,780,011
PARADIP,1161,20.267,86.700,,IND,27/06/2017,500,106
PASAJES,561,43.317,-1.917,,ESP,01/01/1980,200,001
PATRAI,1250,38.417,21.729,,GRC,07/08/2013,290,014
PATRICIA BAY,1152,48.650,-123.450,,CAN,29/06/2017,822,098
PELABUHAN KELANG,1591,3.050,101.358,,MYS,21/11/2017,550,007
PENRHYN,1450,-9.017,-158.067,143,COK,04/11/2015,775,001
PENSACOLA,246,30.403,-87.210,288,USA,02/02/2017,940,041
PESCHANYI (PESCHANYI MYS),1006,79.433,102.483,,RUS,08/01/2003,030,405
PETROPAVLOVSK-KAMCHATSKY,824,52.983,158.650,93,RUS,09/01/2018,630,021
PEVEK,606,69.700,170.250,,RUS,08/12/2014,030,567
PHILADELPHIA (PIER 9N),135,39.933,-75.142,,USA,02/02/2017,960,087
PICTOU,1121,45.683,-62.700,,CAN,01/06/1998,970,021
PIETARSAARI / JAKOBSTAD,194,63.709,22.690,,FIN,20/12/2017,060,041
"PINEY POINT, MARYLAND",971,38.133,-76.533,,USA,01/01/1980,960,077
PIONERSKY,289,54.950,20.217,97,RUS,29/06/1988,080,181
PIRAIEVS,374,37.937,23.627,,GRC,01/11/2017,290,031
PIRAMIDE,867,-42.583,-64.283,,ARG,01/01/1980,860,041
PLOCE,1945,43.050,17.417,,HRV,17/05/2016,280,075
PLUM ISLAND,875,41.167,-72.200,,USA,01/01/1980,960,136
POHANG,1324,36.047,129.384,,KOR,25/04/2017,620,056
POHNPEI C,1925,6.981,158.200,115,FSM,25/01/2017,710,032
POHNPEI-B,1370,6.983,158.233,115,FSM,04/11/2015,710,031
POINT ATKINSON,193,49.333,-123.250,,CAN,29/06/2017,822,051
POINT LA RUE,1846,-4.667,55.533,339,SYC,03/11/2015,442,007
POINT REYES,1394,37.995,-122.977,,USA,02/02/2017,823,030
POINT SAPIN,1138,46.967,-64.833,,CAN,01/01/1980,970,038
POINT TUPPER,1332,45.600,-61.367,,CAN,03/06/1996,970,014
POINTE DES GALETS,1501,-20.935,55.285,17,REU,22/03/2017,451,001
POINTE NOIRE,938,-4.783,11.833,261,COG,25/11/1993,424,021
POINTE ST. GILDAS,1078,47.133,-2.250,,FRA,07/09/1990,190,113
POINTE-A-PITRE,1784,16.224,-61.531,,GLP,22/03/2017,914,001
POINTE-AU-PERE,138,48.517,-68.467,,CAN,25/10/1993,970,061
POINTE-DU-CHENE,1309,46.250,-64.533,,CAN,07/06/1989,970,036
POLYARNIY,2027,69.200,33.483,,RUS,20/07/2010,030,020
PONTA DELGADA,258,37.736,-25.671,245,PRT,06/06/2017,360,001
POPOVA (BELYI OSTROV),653,73.333,70.050,,RUS,06/01/2003,030,325
PORT ADELAIDE (OUTER HARBOR),448,-34.780,138.481,,AUS,21/09/2017,680,311
PORT ALBERNI,527,49.233,-124.817,,CAN,19/04/2000,822,111
PORT ALEXANDER,2299,56.247,-134.647,,USA,02/02/2017,821,033
"PORT ALLEN, HANAPEPE BAY, KAUAI ISLAND",2129,21.903,-159.592,,USA,24/01/2012,760,019
PORT ALMA,2072,-23.583,150.867,,AUS,30/06/2016,680,070
"PORT ANGELES, WASHINGTON",2127,48.125,-123.440,,USA,02/02/2017,823,003
"PORT ARANSAS, H. CALDWELL PIER",922,27.827,-97.050,,USA,03/06/1987,940,004
PORT AU PRINCE,583,18.567,-72.350,209,HTI,01/01/1980,934,011
PORT AUGUSTA,574,-32.550,137.783,,AUS,11/03/1987,680,401
PORT AUX BASQUES,392,47.567,-59.133,,CAN,29/06/2017,970,111
PORT BLAIR,206,11.683,92.767,38,IND,27/01/2016,540,001
PORT BLOC,1915,45.569,-1.062,,FRA,22/03/2017,190,126
PORT CHALMERS,1643,-45.815,170.624,,NZL,13/06/2017,690,028
"PORT CHICAGO, CALIFORNIA",2330,38.055,-122.040,,USA,16/02/2017,823,033
PORT DOUGLAS 2,1471,-16.483,145.467,,AUS,19/05/2015,680,037
PORT ELIZABETH,820,-33.951,25.630,76,ZAF,23/02/2017,430,088
PORT ERIN,1793,54.085,-4.768,,IMN,28/06/2017,170,233
PORT GILES,1550,-35.022,137.768,,AUS,30/06/2016,680,340
PORT HARDY,1071,50.717,-127.483,,CAN,29/06/2017,822,020
PORT HEDLAND,189,-20.318,118.574,51,AUS,30/06/2016,680,494
PORT IRENE,1705,18.383,122.100,,PHL,08/10/2008,660,003
PORT ISAAC,2284,50.594,-4.834,,GBR,08/03/2016,170,162
PORT ISABEL,497,26.060,-97.215,,USA,02/02/2017,940,001
PORT JEFFERSON,848,40.950,-73.077,,USA,16/07/1993,960,138
PORT KEMBLA,831,-34.474,150.912,,AUS,25/01/2017,680,161
PORT LINCOLN,230,-34.716,135.870,,AUS,30/06/2016,680,431
PORT LOUIS,477,-20.150,57.500,18,MUS,12/06/1991,450,011
PORT LOUIS II,1673,-20.150,57.500,18,MUS,24/01/2018,450,012
PORT LYTTELTON,247,-43.606,172.722,,NZL,13/06/2017,690,021
PORT MACDONNELL I,871,-38.000,140.667,,AUS,01/01/1980,680,241
PORT MACQUARIE,2313,-31.427,152.911,,AUS,22/11/2016,680,125
PORT MANSFIELD,1038,26.553,-97.422,,USA,02/02/2017,940,002
PORT MORESBY,439,-9.483,147.133,,PNG,20/05/1996,670,011
PORT MORESBY II,1610,-9.483,147.133,,PNG,26/03/2013,670,012
PORT NOLLOTH,836,-29.257,16.868,,ZAF,23/02/2017,430,021
PORT OF SPAIN,415,10.650,-61.517,203,TTO,15/11/1999,890,001
PORT ORFORD,1640,42.738,-124.498,,USA,02/02/2017,823,020
PORT PIRIE,216,-33.178,138.012,,AUS,21/09/2017,680,391
PORT RENFREW,842,48.550,-124.417,,CAN,19/04/2000,822,106
PORT ROYAL,744,17.933,-76.850,210,JAM,01/01/1980,932,011
PORT SAID,253,31.250,32.300,,EGY,01/01/1980,330,001
PORT SAN LUIS,508,35.177,-120.760,,USA,02/02/2017,823,042
PORT STANVAC,1506,-35.109,138.467,,AUS,13/10/2011,680,298
PORT STEPHENS (TOMAREE),2316,-32.715,152.182,,AUS,28/09/2016,680,128
PORT SUDAN,1690,19.633,37.117,,SDN,27/02/1995,477,001
PORT TARANAKI,996,-39.056,174.034,,NZL,13/06/2017,690,081
PORT TOWNSEND,1325,48.112,-122.757,,USA,02/02/2017,823,012
PORT TUDY,1247,47.644,-3.446,,FRA,22/03/2017,190,103
PORT VENDRES,1469,42.520,3.107,,FRA,22/03/2017,230,006
PORT VILA B,1841,-17.755,168.308,348,VUT,25/01/2017,741,002
PORT WALLAROO,383,-33.933,137.633,,AUS,01/01/1980,680,381
PORT-ALFRED,1392,48.333,-70.867,,CAN,27/07/2015,970,095
PORT-SAINT-FRANCOIS,137,46.267,-72.617,,CAN,29/06/2017,970,076
PORTBURY,2011,51.500,-2.728,,GBR,28/06/2017,170,170
PORTLAND,1547,-38.343,141.613,55,AUS,25/01/2017,680,231
PORTLAND (MAINE),183,43.657,-70.247,,USA,02/02/2017,960,181
PORTNEUF,951,46.683,-71.883,,CAN,29/06/2017,970,087
PORTO CORSINI,100,44.500,12.283,,ITA,01/01/1980,270,035
"PORTO EMPEDOCLE, SICILY",2083,37.286,13.527,,ITA,18/10/2016,260,006
PORTO GARIBALDI,2144,44.678,12.249,,ITA,24/05/2016,270,037
PORTO GRANDE (ST. VINCENT) 2,1769,16.883,-25.000,,CPV,09/11/1998,380,002
PORTO MAURIZIO,108,43.867,8.017,,ITA,01/01/1980,250,001
PORTO TORRES,2084,40.842,8.404,,ITA,18/10/2016,240,006
PORTPATRICK,1215,54.843,-5.120,,GBR,02/07/2012,170,236
PORTRUSH,1867,55.207,-6.657,,GBR,28/06/2017,170,261
PORTSMOUTH,350,50.802,-1.111,,GBR,28/06/2017,170,131
PORTSMOUTH (NORFOLK NAVY YARD),399,36.822,-76.293,,USA,26/06/1990,960,065
"PORVOO, EMASALO",2269,60.206,25.625,,FIN,20/12/2017,060,353
POSIDHONIA,409,37.951,22.960,,GRC,01/11/2017,290,011
POTI,41,42.167,41.683,,GEO,21/06/2016,305,021
PRAVDY (PRAVDY OSTROV),615,76.267,94.767,,RUS,06/01/2003,030,378
PREOBRAZHENIA (PREOBRAZHENIA OSTROV),652,74.667,112.933,,RUS,08/01/2003,030,418
PREVEZA,410,38.959,20.757,,GRC,01/11/2017,290,001
"PRICKLEY BAY, GRENADA",2272,12.005,-61.765,,GRD,05/01/2016,893,001
PRIGI,2197,-8.280,111.730,,IDN,28/10/2015,560,132
PRIMORSK,237,60.350,28.617,,RUS,01/01/1980,080,004
PRINCE RUPERT,167,54.317,-130.333,155,CAN,29/06/2017,822,001
PROGRESO,690,21.300,-89.667,213,MEX,24/06/2015,920,001
PROVIDENCE (STATE PIER),430,41.807,-71.400,,USA,02/02/2017,960,158
PROVIDENIA,662,64.417,-173.233,309,RUS,16/01/2003,030,725
"PRUDHOE BAY, ALASKA",1857,70.400,-148.527,151,USA,02/02/2017,821,002
PUERTO ANGEL,1015,15.500,-96.500,164,MEX,14/02/1996,830,086
PUERTO ARMUELLES,668,8.267,-82.867,,PAN,01/01/1980,840,001
PUERTO ARMUELLES B,1571,8.267,-82.867,,PAN,05/06/2014,840,002
PUERTO BOLIVAR,1277,-3.267,-80.000,,ECU,16/06/1992,845,041
PUERTO CASTILLA,779,16.017,-86.033,,HND,01/01/1980,908,011
PUERTO CORTES,557,15.833,-87.950,,HND,01/01/1980,908,031
PUERTO DE HIERRO,782,10.617,-62.083,,VEN,01/01/1980,900,001
PUERTO DESEADO,185,-47.750,-65.917,190,ARG,24/05/2017,860,011
PUERTO LIMON,552,10.000,-83.033,,CRI,18/05/1994,906,011
PUERTO MADRYN,501,-42.767,-65.033,191,ARG,25/10/2010,860,031
PUERTO PLATA,577,19.817,-70.700,,DOM,01/01/1980,936,021
"PUERTO PRINCESA, PALAWAN",207,9.750,118.733,,PHL,13/12/2017,660,111
PUERTO SOBERANIA,1603,-62.483,-59.633,189,ATA,30/09/2004,999,005
PUERTO WILLIAMS,1122,-54.917,-67.617,,CHL,19/07/1996,850,081
PULAU LANGKAWI,1676,6.431,99.764,,MYS,21/11/2017,550,002
PULAU PINANG,1595,5.422,100.347,,MYS,21/11/2017,550,003
PULAU TIOMAN,1678,2.807,104.140,,MYS,21/11/2017,550,013
"PULUPANDAN, NEGROS OCCIDENTAL",2151,10.517,122.800,,PHL,13/12/2017,660,005
PUNTA ARENAS,473,-53.167,-70.900,,CHL,19/07/1996,850,061
PUNTA ARENAS II,2263,-53.124,-70.860,,CHL,09/11/2017,850,062
PUNTA DEL ESTE,434,-34.967,-54.950,,URY,23/05/1996,870,021
PUNTARENAS,464,9.967,-84.833,,CRI,01/01/1980,836,001
QIKIQTARJUAQ,1935,67.867,-64.117,,CAN,29/06/2017,970,135
QINHUANGDAO,614,39.900,119.600,,CHN,24/07/1995,610,039
QUARRY BAY,1674,22.291,114.213,77,HKG,14/02/2017,611,010
QUEBEC (LAUZON),173,46.833,-71.167,,CAN,07/05/2013,970,071
QUEEN CHARLOTTE CITY,829,53.250,-132.067,,CAN,29/06/2017,822,008
QUEPOS,844,9.400,-84.167,167,CRI,14/10/2013,836,011
QUEPOS B,2189,9.425,-84.172,167,CRI,29/09/2015,836,021
QUEQUEN,223,-38.583,-58.700,,ARG,05/04/1990,860,081
QUI NHON II,2267,13.775,109.255,75,VNM,04/11/2015,605,042
QUINHON,1449,13.767,109.250,75,VNM,17/11/2015,605,041
RAAHE / BRAHESTAD,240,64.666,24.407,,FIN,20/12/2017,060,021
RABAUL,1164,-4.200,152.183,65,PNG,08/12/1998,670,021
RAFFLES LIGHT HOUSE,1351,1.167,103.750,,SGP,26/04/2017,555,011
RAFINA,1695,38.033,24.000,,GRC,28/11/1994,290,032
RANGIROA,2216,-14.946,-147.706,,PYF,22/03/2017,808,002
RANGOON,210,16.767,96.167,,MMR,01/01/1980,530,011
RAROTONGA B,1843,-21.205,-159.785,139,COK,25/01/2017,785,006
RATAN,88,63.986,20.895,,SWE,01/03/2017,050,191
RATMANOVA,617,65.850,-169.133,,RUS,16/01/2003,030,670
RAU-CHUA,605,69.500,166.583,,RUS,08/12/2014,030,556
RAUMA / RAUMO,376,61.134,21.426,,FIN,20/12/2017,060,121
REAL QUEZON,2035,14.667,121.600,,PHL,13/12/2017,660,024
RECIFE,556,-8.050,-34.867,,BRA,01/01/1980,874,121
"REDWOOD CITY, CALIFORNIA",2329,37.507,-122.212,,USA,16/02/2017,823,035
REEDY POINT,786,39.558,-75.573,,USA,02/02/2017,960,089
REGGIO CALABRIA,670,38.100,15.650,,ITA,01/01/1980,250,061
REGGIO CALABRIA II,2142,38.122,15.649,,ITA,18/10/2016,250,062
REPOSAARI,85,61.617,21.450,,FIN,01/01/1980,060,091
RESOLUTE,863,74.683,-94.883,,CAN,01/01/1980,970,151
REYKJAVIK,638,64.151,-21.940,229,ISL,24/01/2017,010,001
RHODOS,1243,36.442,28.236,,GRC,07/08/2013,290,110
RHODOS II,2167,36.442,28.236,,GRC,01/11/2017,290,112
RICHARDS BAY,1443,-28.812,32.079,,ZAF,23/02/2017,430,095
RICHMOND,462,37.567,-77.450,,USA,01/01/1980,960,068
RIKITEA,1253,-23.122,-134.967,138,PYF,28/10/2015,808,001
RIMOUSKI,1597,48.483,-68.517,,CAN,29/06/2017,970,062
RINCON ISLAND,1013,34.348,-119.442,,USA,16/07/1993,823,044
RINGHALS,2111,57.250,12.113,,SWE,01/03/2017,050,035
RIO DE JANEIRO,579,-22.933,-43.133,,BRA,01/01/1980,874,091
RIO SANTIAGO,897,-34.850,-57.900,,ARG,01/01/1980,860,141
RIOHACHA,714,11.550,-72.917,,COL,01/01/1980,902,011
RIVIERE-AU-RENARD,1213,49.000,-64.383,,CAN,29/06/2017,970,054
RIVIERE-DU-LOUP,1284,47.850,-69.567,,CAN,07/06/1989,970,064
ROCKLAND,1279,44.105,-69.102,,USA,22/06/1990,960,186
ROCKPORT,538,28.022,-97.047,,USA,02/02/2017,940,005
RODBYHAVN,762,54.656,11.349,,DNK,12/09/2013,130,011
RODRIGUES IS,1672,-19.667,63.417,19,MUS,24/01/2018,450,021
RONNSKAR,30,63.067,20.800,,FIN,01/01/1980,060,061
ROOMPOT BUITEN,1551,51.620,3.682,,NLD,17/07/2017,150,090
RORVIK,1241,64.859,11.230,234,NOR,07/11/2017,040,136
ROSALES,870,-38.933,-62.067,,ARG,01/01/1980,860,061
ROSCOFF,1347,48.718,-3.966,,FRA,23/03/2017,190,086
ROSSLYN BAY,1760,-23.161,150.790,,AUS,25/01/2017,680,069
ROSYTH,1074,56.017,-3.450,,GBR,29/03/1994,170,027
ROTHERA,1931,-67.571,-68.130,342,ATA,21/05/2015,999,103
ROVINJ,761,45.083,13.628,,HRV,17/05/2016,280,006
RUSSARO,28,59.767,22.950,,FIN,01/01/1980,060,316
RUSSKAIA GAVAN II,710,76.183,62.583,99,RUS,17/01/2003,030,003
RUSSKAYA GAVAN,711,76.200,62.583,99,RUS,12/07/1994,030,001
RUSSKII (RUSSKII OSTROV),655,77.167,96.433,,RUS,06/01/2003,030,380
RUSTICO,1330,46.467,-63.283,,CAN,01/06/1998,970,033
SABANG,2195,5.888,95.317,347,IDN,28/10/2015,560,010
SABINE PASS,920,29.705,-93.853,,USA,04/11/1988,940,009
SABINE PASS NORTH,1835,29.728,-93.870,,USA,02/02/2017,940,010
SAGUNTO,2059,39.634,-0.206,,ESP,04/01/2017,220,060
SAGYLLAH-ARY,1019,73.150,128.883,,RUS,08/01/2003,030,443
SAIGO,1095,36.201,133.331,,JPN,08/02/2017,647,043
"SAINT JOHN, N.B.",195,45.267,-66.067,,CAN,29/06/2017,970,001
SAINT PIERRE ET MIQUELON,2246,46.779,-56.168,,SPM,04/04/2017,970,115
SAIPAN,1474,15.233,145.750,118,MNP,28/10/2015,700,011
SAKAI,811,35.548,133.243,,JPN,08/02/2017,647,041
SALALAH,1754,16.933,54.000,4,OMN,13/01/2016,487,001
SALAMANDER,1427,-33.067,18.000,,ZAF,02/10/1995,430,037
SALERNO,2086,40.677,14.751,,ITA,07/05/2015,250,056
SALGRUND,228,62.333,21.200,,FIN,01/01/1980,060,081
SALINA CRUZ,689,16.167,-95.200,,MEX,14/05/2013,830,091
SALINOPOLIS,589,-0.650,-47.383,,BRA,01/01/1980,874,158
SALVADOR,578,-12.967,-38.517,334,BRA,01/01/1980,874,111
SAMOS ISLAND - VATHI,1941,37.755,26.976,,GRC,08/05/2014,290,105
SAN CLEMENTE ISLAND,883,33.000,-118.550,,USA,01/01/1980,823,061
SAN CRISTOBAL,927,-0.900,-89.617,,ECU,01/01/1980,845,021
SAN DIEGO (QUARANTINE STATION),158,32.713,-117.173,,USA,02/02/2017,823,081
SAN FELIX,1751,-26.292,-80.109,177,CHL,07/06/2017,850,016
"SAN FERNANDO, LA UNION",548,16.617,120.300,,PHL,27/06/1990,660,001
SAN FRANCISCO,10,37.807,-122.465,158,USA,02/02/2017,823,031
SAN JOSE,973,13.917,-90.833,,GTM,01/01/1980,832,011
SAN JOSE,1711,12.333,121.083,,PHL,13/12/2017,660,002
SAN JOSE II,777,13.917,-90.817,,GTM,03/12/1997,832,012
SAN JUAN,923,-15.367,-75.200,,PER,01/01/1980,848,041
SAN JUAN,1001,18.458,-66.115,206,PRI,02/02/2017,938,021
SAN MATEO,1663,37.583,-122.250,,USA,21/06/1990,823,034
"SAND POINT, POPOF IS., AK",1634,55.337,-160.502,100,USA,02/02/2017,821,006
SANDAKAN,1834,5.810,118.067,,MYS,21/11/2017,665,045
SANDNESSJOEN,1137,66.017,12.633,,NOR,01/01/1980,040,117
SANDOWN PIER,2278,50.651,-1.153,,GBR,08/03/2016,170,134
"SANDWICH MARINA, CAPE COD CANAL ENTRANCE",775,41.767,-70.500,,USA,01/01/1980,960,168
SANDY HOOK,366,40.467,-74.008,,USA,02/02/2017,960,101
SANNIKOVA (SANNIKOVA PROLIV),602,74.667,138.900,,RUS,08/12/2014,030,480
"SANTA BARBARA, CALIFORNIA",2126,34.408,-119.685,,USA,02/02/2017,823,048
SANTA CRUZ DAS FLORES,843,39.450,-31.117,244,PRT,10/08/2016,360,041
SANTA CRUZ DE LA PALMA,585,28.683,-17.750,,ESP,01/01/1980,370,011
SANTA CRUZ DE LA PALMA B,568,28.672,-17.769,,ESP,07/02/2017,370,015
SANTA CRUZ DE TENERIFE I,303,28.477,-16.241,,ESP,17/11/1993,370,021
SANTA MONICA (MUNICIPAL PIER),377,34.008,-118.500,,USA,02/02/2017,823,049
SANTANA,1975,-0.050,-51.167,,BRA,18/03/1987,874,171
SANTANDER I,485,43.461,-3.791,,ESP,07/02/2017,200,011
SANTANDER II,1051,43.467,-3.767,,ESP,01/01/1980,200,012
SANTANDER III,1807,43.461,-3.791,,ESP,20/09/2017,200,013
SANTIAGO DE CUBA,2287,20.021,-75.837,,CUB,09/01/2018,930,085
SANTO TOMAS DE CASTILLA,1080,15.700,-88.617,,GTM,01/01/1980,916,001
SAPPI,226,61.483,21.333,,FIN,01/01/1980,060,111
SASEBO I,672,33.167,129.717,,JPN,01/01/1980,645,071
SASEBO II,1147,33.158,129.724,,JPN,08/02/2017,645,072
SASSNITZ,397,54.511,13.643,,DEU,13/12/2017,120,004
SAUGOR/SAGAR,417,21.650,88.050,,IND,27/01/2016,500,111
SAUMLAKI,2274,-7.982,131.290,,IDN,13/01/2016,560,138
SAVAGE COVE,1280,51.333,-56.700,,CAN,07/06/1989,970,103
SCOTT BASE,2029,-77.850,166.769,134,ATA,13/12/2017,999,080
SE-LAHA,1200,70.150,72.567,,RUS,06/01/2003,030,331
SEATTLE,127,47.602,-122.338,,USA,02/02/2017,823,011
SEAVEY ISLAND,288,43.080,-70.742,,USA,26/10/1990,960,177
SECOND VALLEY,443,-35.517,138.167,,AUS,01/01/1980,680,321
SEJINGKAT,1893,1.583,110.422,,MYS,25/07/2011,663,021
SELDOVIA,1070,59.440,-151.720,,USA,07/02/2017,821,015
SEMBAWANG,724,1.467,103.833,,SGP,26/04/2017,555,051
SEOGWIPO,1627,33.240,126.562,,KOR,25/04/2017,620,032
SEPT-ILES,1322,50.200,-66.400,,CAN,29/06/2017,970,099
SETE,958,43.398,3.699,,FRA,22/03/2017,230,021
SETROIA,1425,38.500,-8.900,,PRT,09/11/1998,210,026
SETTLEMENT POINT,1646,26.710,-78.997,211,BHS,10/07/2002,941,001
SETTLEMENT POINT A,1928,26.683,-78.983,211,BHS,13/01/2016,941,002
SEVASTOPOL,42,44.617,33.533,,UKR,03/02/1998,298,041
SEVERN BRIDGE,2285,51.570,-2.700,,GBR,08/03/2016,170,172
SEVILLA-ESCLUSA,2047,37.331,-5.996,,ESP,17/04/2013,220,010
SEWARD,266,60.120,-149.427,150,USA,02/02/2017,821,017
"SEWELLS POINT, HAMPTON ROADS",299,36.947,-76.330,,USA,02/02/2017,960,071
SHALAUROVA (SHALAUROVA MYS),603,73.183,143.233,,RUS,13/08/2013,030,516
SHANWEI,1406,22.750,115.350,,CHN,17/01/2012,610,006
SHEDIAC BAY,1326,46.250,-64.533,,CAN,29/06/2017,970,035
SHEERNESS,3,51.446,0.743,,GBR,31/05/2016,170,101
SHEK PIK,1902,22.220,113.894,,HKG,14/02/2017,611,023
"SHELL BEACH, LOUISIANA",2296,29.868,-89.673,,USA,02/02/2017,940,030
"SHELL POINT, WALKER CREEK",1670,30.060,-84.290,,USA,05/07/1990,940,049
SHIJIUSUO,1404,35.383,119.550,,CHN,17/01/2012,610,034
SHIMIZU-MINATO,808,35.012,138.518,,JPN,08/02/2017,642,121
SHIMONOSEKI I,845,33.967,130.950,,JPN,09/05/1995,647,011
SHIMONOSEKI II,783,33.967,130.950,,JPN,01/01/1980,647,012
SHIMONOSEKI III,1830,33.925,130.928,,JPN,06/02/2014,647,010
SHIRAHAMA,1150,33.684,135.375,,JPN,08/02/2017,643,005
SHOAL BAY,2320,-32.720,152.176,,AUS,29/11/2016,680,129
SHUTE HARBOUR 2,1569,-20.283,148.783,,AUS,30/06/2016,680,058
SIBAURA,952,35.633,139.750,,JPN,20/04/2009,642,072
SIBOLGA II,1752,1.750,98.767,,IDN,28/10/2015,560,022
SIMONS BAY,826,-34.188,18.440,268,ZAF,23/02/2017,430,061
SIMRISHAMN,2107,55.558,14.358,,SWE,01/03/2017,050,074
SINES,1456,37.950,-8.883,,PRT,09/11/1998,210,028
SIROS,1234,37.440,24.946,,GRC,01/11/2017,290,081
SITKA,426,57.052,-135.342,154,USA,02/02/2017,821,031
SKAGSUDDE,2102,63.191,19.013,,SWE,01/03/2017,050,187
SKAGWAY,495,59.450,-135.327,,USA,02/02/2017,821,041
SKANOR,2108,55.417,12.829,,SWE,01/03/2017,050,056
SKOPELOS,1907,39.124,23.729,,GRC,12/08/2013,290,037
SKURU,142,60.100,23.550,,FIN,13/09/1988,060,344
SLIPSHAVN,98,55.288,10.828,,DNK,12/09/2013,130,051
SMOGEN,179,58.354,11.218,,SWE,01/03/2017,050,011
SODERSKAR,29,60.117,25.417,,FIN,01/01/1980,060,354
SOKCHO,1365,38.207,128.594,,KOR,25/04/2017,620,071
SOLNECHNAIA (SOLNECHNAIA BUKHTA),656,78.200,103.267,,RUS,06/01/2003,030,390
SOLOMON'S ISLAND (BIOL. LAB.),412,38.317,-76.452,,USA,02/02/2017,960,078
SOMA,1345,37.831,140.962,,JPN,09/02/2017,642,036
SOOKE,921,48.367,-123.733,,CAN,25/10/1993,822,104
SOPOCHNAIA KARGA,917,71.867,82.700,,RUS,08/12/2014,030,351
SOUDHAS,1232,35.487,24.082,,GRC,12/08/2013,290,097
SOUDHAS II,2067,35.487,24.082,,GRC,14/06/2016,290,099
SOUTH BEACH,1196,44.625,-124.042,157,USA,07/02/2017,823,016
"SOUTH ISLAND PLANTATION, WINYAH BAY",1651,33.235,-79.203,,USA,01/10/1996,960,044
SOUTH PASS,1511,28.990,-89.140,,USA,14/11/2017,940,034
SOUTH SOUND,1426,19.267,-81.383,,CYM,20/08/1997,931,011
SOUTHEND,334,51.514,0.724,,GBR,17/05/2016,170,081
SOUTHPORT,1431,33.915,-78.018,,USA,22/06/1990,960,056
SPIKARNA,1211,62.363,17.531,,SWE,01/03/2017,050,183
SPLIT - GRADSKA LUKA,352,43.507,16.442,,HRV,17/05/2016,280,031
SPLIT RT MARJANA,685,43.508,16.392,,HRV,13/05/2013,280,021
SPRING BAY,1216,-42.546,147.933,56,AUS,25/01/2017,680,199
SPRINGMAID PIER,1444,33.655,-78.918,,USA,02/02/2017,960,050
ST HELIER (JERSEY) 2,1795,49.183,-2.117,,JEY,28/06/2017,180,002
ST JEAN DE LUZ (SOCOA),469,43.395,-1.682,,FRA,22/03/2017,190,141
ST-FRANCOIS,999,47.000,-70.817,,CAN,29/06/2017,970,068
ST-JEAN-PORT-JOLI,1223,47.217,-70.283,,CAN,01/01/1980,970,066
ST-JOSEPH-DE-LA-RIVE,1244,47.450,-70.367,,CAN,29/06/2017,970,092
ST. GEORGES / ESSO PIER (BERMUDA),368,32.373,-64.703,221,BMU,02/02/2017,950,011
"ST. JOHN'S, NFLD.",393,47.567,-52.717,223,CAN,29/06/2017,970,121
ST. MALO,454,48.641,-2.028,,FRA,22/03/2017,190,071
ST. MARKS,1136,30.067,-84.183,,USA,01/01/1980,940,047
ST. MARYS,1855,49.918,-6.317,,GBR,31/05/2016,170,163
ST. NAZAIRE,457,47.270,-2.200,,FRA,22/03/2017,190,111
"ST. PAUL'S HARBOR, KODIAK",1179,57.745,-152.482,,USA,06/07/1990,821,009
ST. PETERSBURG,520,27.760,-82.627,,USA,02/02/2017,940,061
STANLEY,1082,-51.690,-57.865,305,FLK,01/01/1980,863,001
STANLEY II,1796,-51.692,-57.821,305,FLK,12/06/2014,863,002
STAVANGER,47,58.974,5.730,,NOR,07/11/2017,040,261
STE-ANNE-DES-MONTS,1199,49.133,-66.483,,CAN,03/06/1996,970,057
STENHOUSE BAY,492,-35.250,137.767,,AUS,01/01/1980,680,371
STENUNGSUND,2112,58.093,11.833,,SWE,01/03/2017,050,024
STERLEGOVA (STERLEGOVA MYS),612,75.417,88.900,,RUS,13/08/2013,030,365
STEVESTON,1255,49.117,-123.183,,CAN,19/04/2000,822,083
STOCKHOLM,78,59.324,18.082,341,SWE,01/03/2017,050,141
STOMPNEUS BAY,882,-32.717,17.983,,ZAF,01/01/1980,430,031
STONY POINT,1033,-38.372,145.225,,AUS,31/01/2017,680,178
STORNOWAY,314,58.208,-6.389,238,GBR,28/06/2017,170,251
STROMSTAD,140,58.950,11.183,,SWE,06/11/1991,050,001
SUBIC ZAMBALES,2176,14.767,120.250,,PHL,13/12/2017,660,009
SUCURAJ,1706,43.133,17.200,,HRV,12/05/2008,280,046
SULTAN SHOAL,1248,1.233,103.650,,SGP,26/04/2017,555,021
SUMOTO,1098,34.341,134.907,,JPN,08/02/2017,643,026
SUR SARI,227,60.083,26.983,,RUS,01/01/1980,080,001
SURIGAO,1708,9.783,125.500,,PHL,13/12/2017,660,151
SUVA-A,1327,-18.136,178.423,122,FJI,25/01/2017,742,012
SVIATOI NOS (SVIATOI NOS MYS),657,72.833,140.733,,RUS,06/01/2003,030,397
SWANAGE PIER,2279,50.609,-1.949,,GBR,08/03/2016,170,138
SWANSEA,967,51.617,-3.917,,GBR,25/10/1989,170,178
SWINOUJSCIE,2,53.917,14.233,,POL,19/10/2001,110,092
"SYDNEY, FORT DENISON",65,-33.850,151.233,57,AUS,10/05/2000,680,141
"SYDNEY, FORT DENISON 2",196,-33.855,151.226,57,AUS,21/09/2017,680,140
TABLE BAY HARBOUR,866,-33.917,18.433,,ZAF,27/03/2013,430,051
"TACLOBAN, LEYTE",664,11.250,125.000,,PHL,01/01/1980,660,071
TADIBE-IAHA,767,70.367,72.567,,RUS,06/01/2003,030,328
TADOUSSAC,1219,48.133,-69.717,,CAN,25/10/1993,970,096
TAGO,1437,34.807,138.764,,JPN,09/02/2017,642,119
TAI MIU WAN,1891,22.270,114.289,,HKG,14/02/2017,611,012
"TAI PO KAU, TOLO HARBOUR",1034,22.443,114.184,,HKG,14/02/2017,611,014
TAJIRI,1148,35.594,134.316,,JPN,08/02/2017,647,047
TAKAMATSU,847,34.350,134.050,,JPN,01/07/1994,644,041
TAKAMATSU II,1789,34.351,134.057,,JPN,09/02/2017,644,042
TAKORADI,331,4.885,-1.745,335,GHA,15/03/2013,410,001
TALARA,475,-4.617,-81.283,,PER,01/01/1980,848,011
TALCAHUANO,571,-36.683,-73.100,,CHL,14/11/2017,850,041
TALLINN,321,59.450,24.800,,EST,01/01/1980,082,011
TAN-NOWA,817,34.339,135.178,,JPN,08/02/2017,643,017
TANAH MERAH,2034,1.312,103.988,,SGP,26/04/2017,555,030
"TANDAG, SURIGAO DEL SUR",2158,9.083,126.200,,PHL,13/12/2017,660,148
TANGACHCHIMADAM,1258,9.283,79.250,,IND,21/03/1990,500,085
TANGGU,1403,39.000,117.717,,CHN,21/07/1995,610,037
TANJONG CHANGI,2033,1.390,103.999,,SGP,26/04/2017,555,020
TANJONG PAGAR,1746,1.267,103.850,44,SGP,26/04/2017,555,002
TANJUNG GELANG,1589,3.975,103.430,,MYS,21/11/2017,550,014
TANJUNG KELING,1593,2.215,102.153,,MYS,21/11/2017,550,009
TANJUNG SEDILI,1702,1.932,104.115,,MYS,21/11/2017,550,012
TAPPI,1587,41.243,140.381,,JPN,09/02/2017,641,033
TARANTO,103,40.433,17.267,,ITA,01/01/1980,270,006
TARANTO II,2095,40.476,17.224,,ITA,18/10/2016,270,007
"TARAWA-A,BETIO",1381,1.367,172.933,113,KIR,29/08/1990,730,006
"TARAWA-B,BAIRIKI",1579,1.333,173.017,113,KIR,15/11/1990,730,007
"TARAWA-C,BETIO",1739,1.367,172.933,113,KIR,17/10/2002,730,008
TARIFA,488,36.009,-5.603,,ESP,07/02/2017,220,021
TARIFA 2,2054,36.006,-5.604,,ESP,20/09/2017,220,024
TARRAGONA,2182,41.079,1.213,,ESP,20/09/2017,220,062
TAURANGA (SALISBURY WHARF),1590,-37.641,176.181,,NZL,13/06/2017,690,006
TAWAU,1734,4.233,117.883,,MYS,21/11/2017,665,061
TEIGNMOUTH PIER,2283,50.544,-3.492,,GBR,08/03/2016,170,154
TEJN,1812,55.250,14.838,,DNK,12/09/2013,130,016
TEL AVIV,1880,32.083,34.767,,ISR,03/07/2012,320,019
TEL AVIV - YAFO,2147,32.053,34.750,,ISR,03/05/2016,320,020
TEMA,1049,5.617,0.000,,GHA,01/01/1980,410,016
TENERIFE,1803,28.477,-16.241,,ESP,20/09/2017,370,032
TERIBERKA,2028,69.200,35.117,,RUS,20/07/2010,030,023
TERPIAI-TUMSA,790,73.550,118.667,,RUS,08/01/2003,030,430
THESSALONIKI,373,40.633,22.935,,GRC,01/11/2017,290,051
THEVENARD,386,-32.149,133.641,308,AUS,25/01/2017,680,441
TIKSI (TIKSI BUKHTA),569,71.583,128.917,313,RUS,13/08/2013,030,447
TILBURY,335,51.467,0.367,,GBR,17/01/2018,170,083
TIMARU HARBOUR,998,-44.394,171.256,,NZL,13/06/2017,690,026
TOBA,627,34.467,136.850,,JPN,01/01/1980,642,134
TOBERMORY,1491,56.623,-6.064,,GBR,28/06/2017,170,246
TOFINO,165,49.150,-125.917,156,CAN,29/06/2017,822,116
"TOKE POINT, WILLIPA BAY, WA",1354,46.707,-123.967,,USA,02/02/2017,823,009
TOKUYAMA I,669,34.033,131.800,,JPN,01/01/1980,643,051
TOKUYAMA II,1210,34.041,131.803,,JPN,08/02/2017,643,052
TOKYO I,881,35.667,139.767,,JPN,01/01/1980,642,070
TOKYO II,1222,35.650,139.767,,JPN,12/09/1997,642,071
TOKYO III,1545,35.649,139.770,,JPN,09/02/2017,642,069
"TOLCHESTER BEACH, MARYLAND",2323,39.213,-76.245,,USA,16/02/2017,960,093
TONGYEONG,1446,34.828,128.435,,KOR,25/04/2017,620,038
TONOURA,94,34.900,132.067,326,JPN,04/05/1988,647,021
TOPOLOBAMPO,793,25.600,-109.050,,MEX,21/01/1992,830,041
TORSHAVN,839,62.017,-6.767,237,FRO,30/10/2007,015,011
TOSA SHIMIZU,815,32.779,132.959,,JPN,08/02/2017,644,011
TOULON,980,43.113,5.915,,FRA,22/03/2017,230,061
TOWER PIER,336,51.500,0.083,,GBR,17/01/2018,170,092
TOWNSVILLE I,637,-19.250,146.833,60,AUS,21/09/2017,680,051
TOYAMA,1389,36.762,137.225,325,JPN,09/02/2017,647,068
TRABZON II,1927,41.000,39.733,,TUR,28/06/2010,310,013
TRAVEMUNDE,13,53.958,10.872,,DEU,08/12/2016,125,001
TREGDE,302,58.006,7.555,321,NOR,07/11/2017,040,301
TRENTON,1654,40.188,-74.755,,USA,16/07/1993,960,088
TRIBENI,1002,22.983,88.400,,IND,16/12/2008,500,161
"TRIDENT PIER, PORT CANAVERAL",2123,28.415,-80.592,,USA,02/02/2017,960,015
TRIESTE,154,45.647,13.758,340,ITA,09/01/2018,270,061
TRIESTE II,2099,45.649,13.758,,ITA,18/10/2016,270,062
TROIS-RIVIERES,126,46.333,-72.550,,CAN,29/06/2017,970,078
TROMSO,680,69.647,18.961,,NOR,07/11/2017,040,031
TRONDHEIM,34,63.433,10.433,,NOR,30/09/1991,040,141
TRONDHEIM 2,1748,63.436,10.392,,NOR,07/11/2017,040,142
TSAWWASSEN,1341,49.000,-123.133,,CAN,01/01/1980,822,085
TSIM BEI TSUI,1366,22.487,114.014,,HKG,14/02/2017,611,017
TUAPSE,215,44.100,39.067,98,RUS,09/01/2018,300,001
TUAS (WEST JURONG),1894,1.283,103.667,,SGP,21/01/2014,555,035
TUBUAI,2217,-23.342,-149.476,,PYF,22/03/2017,808,004
TUKIZI,673,35.667,139.767,,JPN,01/01/1980,642,063
TUKTOYAKTUK,1000,69.417,-132.967,,CAN,29/06/2017,970,211
TUMACO,639,1.833,-78.733,171,COL,04/11/2015,842,021
TURKEY POINT,1714,29.915,-84.512,,USA,01/10/1996,940,045
TURKU / ABO,239,60.428,22.101,,FIN,20/12/2017,060,241
TURTLE HEAD,1749,-10.522,142.212,,AUS,21/09/2017,680,028
TUTICORIN,1072,8.750,78.200,,IND,27/06/2017,500,083
TUXPAN,918,21.000,-97.333,,MEX,15/05/2013,920,051
TVARMINNE,238,59.850,23.250,,FIN,01/01/1980,060,306
TWEED ENTRANCE SOUTH,2319,-28.171,153.551,,AUS,29/11/2016,680,086
TWEED HEADS,2314,-28.169,153.550,,AUS,28/09/2016,680,085
UADEI,709,71.517,136.417,,RUS,08/01/2003,030,468
UBIN,2068,1.419,103.928,,SGP,26/04/2017,555,015
UBLI,1718,42.750,16.833,,HRV,03/02/1993,280,056
UCHIURA,407,35.017,138.890,,JPN,08/02/2017,642,118
UEDINENIA (UEDINENIA OSTROV),707,77.500,82.200,,RUS,06/01/2003,030,348
UGORSKII SHAR (UGORSKII SHAR PROLIV),622,69.817,60.750,,RUS,06/01/2003,030,308
ULLADULLA HARBOUR,2315,-35.358,150.477,,AUS,22/11/2016,680,165
ULLAPOOL,1112,57.895,-5.158,,GBR,28/06/2017,170,249
ULLEUNG,1490,37.491,130.914,,KOR,25/04/2017,620,059
ULSAN,997,35.502,129.387,,KOR,25/04/2017,620,051
ULUKHAKTOK (FORMERLY HOLMAN ),1930,70.736,-117.761,,CAN,27/07/2015,970,199
UNALASKA,757,53.880,-166.537,102,USA,02/02/2017,820,021
UNO,812,34.489,133.949,,JPN,08/02/2017,643,031
URAGAMI,1090,33.558,135.896,,JPN,08/02/2017,642,138
URAKAWA I,869,42.167,142.767,,JPN,01/01/1980,641,026
URAKAWA II,1296,42.167,142.767,,JPN,26/11/2015,641,027
URANGAN II,2073,-25.300,152.917,,AUS,30/06/2016,680,600
"USCG FREEPORT, TEXAS",2297,28.943,-95.302,,USA,02/02/2017,940,012
USHUAIA I,874,-54.817,-68.217,181,ARG,01/01/1980,860,001
USHUAIA II,1271,-54.817,-68.217,181,ARG,12/11/2007,860,002
UST KARA,600,69.250,64.517,,RUS,08/12/2014,030,315
UST OLENEK,610,73.000,119.867,,RUS,08/01/2003,030,435
USTKA,644,54.583,16.867,,POL,19/10/2001,110,057
UTO,27,59.783,21.367,,FIN,01/01/1980,060,291
UWAJIMA I,461,33.233,132.550,,JPN,01/01/1980,644,021
UWAJIMA II,1212,33.227,132.551,,JPN,08/02/2017,644,022
VAASA / VASA,57,63.082,21.571,,FIN,20/12/2017,060,051
VACA KEY,1701,24.712,-81.105,,USA,02/02/2017,940,089
VADINAR,1943,22.450,69.683,,IND,27/06/2017,500,013
VADSO,1257,70.067,29.750,,NOR,18/10/1994,040,005
VAIRAO,2242,-17.806,-149.295,,PYF,23/03/2017,780,012
VALDEZ,1353,61.125,-146.362,,USA,02/02/2017,821,019
VALENCIA,1813,39.442,-0.311,,ESP,20/09/2017,220,056
VALKARKAI,792,70.083,170.933,,RUS,16/01/2003,030,570
VALPARAISO,499,-33.027,-71.626,175,CHL,07/06/2017,850,031
VANCOUVER,175,49.283,-123.117,,CAN,29/06/2017,822,071
VANKAREM,607,67.833,-175.833,,RUS,13/08/2013,030,630
VARBERG,73,57.100,12.217,,SWE,01/01/1980,050,041
VARDO,524,70.375,31.104,323,NOR,07/11/2017,040,001
VARNA,318,43.183,27.917,,BGR,27/08/1997,295,051
VENEZIA (ARSENALE),87,45.417,12.350,,ITA,01/01/1980,270,041
VENEZIA (PUNTA DELLA SALUTE),168,45.433,12.333,,ITA,27/01/2016,270,054
VENEZIA (S.STEFANO),39,45.417,12.333,,ITA,11/04/2000,270,051
VENEZIA II,2100,45.418,12.427,,ITA,18/10/2016,270,046
VERAVAL,770,20.900,70.367,31,IND,27/01/2016,500,021
VIANA,1482,41.683,-8.833,,PRT,09/11/1998,210,011
VICTOR HARBOUR,1069,-35.562,138.635,,AUS,29/06/2016,680,275
VICTORIA,166,48.417,-123.367,,CAN,29/06/2017,822,101
VICTORIA DOCK,1183,1.267,103.850,44,SGP,26/05/1988,555,001
VIESTE,2087,41.888,16.177,,ITA,18/10/2016,270,022
VIGO,483,42.238,-8.731,,ESP,07/02/2017,200,041
VIGO II,1898,42.243,-8.726,,ESP,20/09/2017,200,042
VIKEN,2110,56.142,12.579,,SWE,01/03/2017,050,066
VIKER,1759,59.036,10.950,,NOR,07/11/2017,040,341
VILLA SANJURJO,506,35.250,-3.917,,MAR,01/01/1980,350,004
VILLAGARCIA,1897,42.601,-8.770,,ESP,20/09/2017,200,036
"VILLAGE COVE, ST. PAUL ISLAND",2304,57.125,-170.285,,USA,02/02/2017,821,007
VILSANDI,322,58.383,21.817,,EST,01/01/1980,082,021
"VIRAC, CATANDUANES",2150,13.583,124.233,,PHL,13/12/2017,660,022
VIRGINIA BEACH,945,36.850,-75.967,,USA,01/01/1980,960,064
"VIRGINIA KEY, FL",1858,25.730,-80.162,332,USA,02/02/2017,960,008
VIS-CESKA VILA,1574,43.067,16.200,,HRV,03/02/1993,280,040
VISAKHAPATNAM,414,17.683,83.283,35,IND,27/06/2017,500,101
VISBY,2105,57.639,18.284,,SWE,01/03/2017,050,096
VISE (VISE OSTROV),704,79.500,76.983,,RUS,08/12/2014,030,338
VLISSINGEN,20,51.442,3.596,,NLD,17/07/2017,150,101
VRANGELIA (VRANGELIA OSTROV),608,70.983,-178.483,,RUS,16/01/2003,030,620
VUNG TAU II,2268,10.340,107.072,,VNM,04/11/2015,605,022
VUNGTAU,1495,10.333,107.067,,VNM,17/11/2015,605,021
VYBORG,83,60.700,28.733,,RUS,01/01/1980,080,002
WACHAPREAGUE,2293,37.607,-75.687,,USA,02/02/2017,960,092
WAGLAN ISLAND,1698,22.183,114.303,,HKG,14/02/2017,611,007
WAJIMA,132,37.406,136.900,,JPN,08/02/2017,647,071
WAKAYAMA,816,34.222,135.146,,JPN,08/02/2017,643,015
WAKE ISLAND,595,19.290,166.617,105,MHL,02/02/2017,720,021
WAKKANAI,1103,45.408,141.685,324,JPN,08/02/2017,641,061
WALLAROO II,1420,-33.926,137.615,,AUS,30/06/2016,680,382
WALTON ON THE NAZE,1224,51.850,1.267,,GBR,20/02/1991,170,074
WALVIS BAY,914,-22.949,14.499,314,NAM,05/04/2016,427,001
WANDO,1568,34.315,126.760,,KOR,25/04/2017,620,034
WANGANUI,1621,-39.945,174.993,,NZL,19/05/1989,690,077
WARNEMUNDE 2,11,54.170,12.103,,DEU,13/12/2017,120,012
WASHINGTON DC,360,38.873,-77.022,,USA,02/02/2017,960,076
"WAVELAND, GULF OF MEX., MS",1884,30.282,-89.367,,USA,19/08/2013,940,032
WEIPA,1157,-12.667,141.867,,AUS,30/06/2016,680,021
WELLINGTON HARBOUR,221,-41.284,174.780,101,NZL,13/06/2017,690,011
WELLINGTON II,500,-41.284,174.780,101,NZL,04/03/2013,690,012
WEST BAY HARBOUR,2282,50.709,-2.764,,GBR,28/09/2016,170,152
WEST COAST,1895,1.300,103.767,,SGP,26/04/2017,555,081
WEST ST. MODESTE,1278,51.600,-56.700,,CAN,25/10/1993,970,132
WEST TUAS,1896,1.344,103.634,,SGP,26/04/2017,555,091
WEST-TERSCHELLING,236,53.363,5.220,,NLD,17/07/2017,150,011
WESTPORT HARBOUR,1004,-41.746,171.595,,NZL,25/05/1995,690,061
WEWAK,1304,-3.550,143.633,,PNG,03/07/2013,670,051
WEYMOUTH,1773,50.609,-2.448,,GBR,28/06/2017,170,150
WHANGAREI HARBOUR (MARSDEN POINT),1065,-35.757,174.350,,NZL,13/06/2017,690,105
WHITBY,1505,54.490,-0.615,,GBR,28/06/2017,170,056
WHYALLA,493,-33.017,137.567,,AUS,01/01/1980,680,411
WHYALLA III,1367,-33.013,137.590,,AUS,21/09/2017,680,410
WICK,1109,58.441,-3.086,,GBR,28/06/2017,170,005
WIDO,1628,35.618,126.302,,KOR,25/04/2017,620,024
WILLETS POINT,362,40.793,-73.782,,USA,01/06/2001,960,141
WILMINGTON,396,34.227,-77.953,,USA,02/02/2017,960,060
WINTER HARBOUR,1799,50.517,-128.033,,CAN,29/06/2017,822,124
WISMAR 2,8,53.899,11.458,,DEU,08/12/2016,120,022
WLADYSLAWOWO,645,54.800,18.417,,POL,19/10/2001,110,047
WONSAN,1007,39.167,127.450,307,PRK,03/09/1993,625,011
WOODS HOLE (OCEAN. INST.),367,41.523,-70.672,,USA,02/02/2017,960,165
WORKINGTON,1794,54.651,-3.567,,GBR,28/06/2017,170,228
WYNDHAM,1116,-15.453,128.101,,AUS,29/06/2016,680,507
XI SHA,1745,16.833,112.333,,CHN,21/02/2017,610,004
XIAMEN,727,24.450,118.067,247,CHN,05/11/2007,610,005
YAIZU,1438,34.871,138.327,,JPN,09/02/2017,642,122
YAKUTAT,445,59.548,-139.733,,USA,02/02/2017,821,026
YAMBA,310,-29.430,153.362,,AUS,22/11/2016,680,101
YANTAI,731,37.533,121.383,,CHN,21/07/1995,610,036
YARMOUTH,1158,43.833,-66.133,,CAN,29/06/2017,970,007
YEOSU,1155,34.747,127.766,,KOR,25/04/2017,620,036
YKSPIHLAJA,86,63.833,23.033,,FIN,01/01/1980,060,031
YOKOSUKA,722,35.288,139.651,,JPN,08/02/2017,642,081
YOSIOKA,1596,41.450,140.250,,JPN,20/04/2009,641,034
YSTAD,72,55.417,13.817,,SWE,29/07/1988,050,071
YUZHNO KURILSK,546,44.017,145.867,90,RUS,25/01/1996,630,001
ZADAR,1859,44.123,15.235,,HRV,17/05/2016,280,013
ZAMBOANGA CITY,2175,6.917,122.067,,PHL,13/12/2017,660,133
ZANZIBAR,1600,-6.150,39.183,297,TZA,03/11/2015,460,016
ZEEBRUGGE,470,51.350,3.200,,BEL,14/03/2017,160,011
ZEMLIA BUNGE,658,74.883,142.117,,RUS,13/01/2003,030,510
ZHAPO,933,21.583,111.817,78,CHN,21/02/2017,610,002
ZHELANIA II (ZHELANIA MYS),647,76.950,68.550,,RUS,06/01/2003,30,321
ZHOHOVA (ZHOHOVA OSTROV),937,76.150,152.833,,RUS,13/01/2003,30,528
ZLARIN,1578,43.700,15.667,,HRV,31/05/1990,280,17